STATION_NUMBER,STATION_NAME,PROV_TERR_STATE_LOC,REGIONAL_OFFICE_ID,HYD_STATUS,SED_STATUS,LATITUDE,LONGITUDE,DRAINAGE_AREA_GROSS,RHBN,REAL_TIME,OPERATOR_ID,DATUM_ID,HasFlow,HasLevel,HasSuscon,HasLoad,YearFrom,YearTo,RecordLength,IsRegulated
01AA002,DAAQUAM (RIVIERE) EN AVAL DE LA RIVIERE SHIDGEL,QC,6,D,,46.55749893,-70.08110809,598,FALSE,FALSE,740,405,-1,0,0,0,1967,1977,11,FALSE
01AD001,MADAWASKA (RIVIERE) A 6 KM EN AVAL DU BARRAGE TEMISCOUATA,QC,6,D,,47.5483284,-68.63639069,2690,FALSE,FALSE,740,405,-1,0,0,0,1918,1997,80,TRUE
01AD002,SAINT JOHN RIVER AT FORT KENT,ME,7,A,,47.25806046,-68.59583282,14700,TRUE,FALSE,600,42,-1,0,0,0,1926,2014,89,FALSE
01AD003,ST. FRANCIS RIVER AT OUTLET OF GLASIER LAKE,NB,7,A,,47.20661163,-68.9569397,1350,TRUE,TRUE,647,10,-1,-1,0,0,1951,2017,67,FALSE
01AD004,SAINT JOHN RIVER AT EDMUNDSTON,NB,7,A,,47.36077881,-68.32489014,15500,FALSE,TRUE,647,35,-1,-1,0,0,1968,2017,33,FALSE
01AD005,MADAWASKA (RIVIERE) AU RESERVOIR TEMISCOUATA,QC,6,D,,47.57056046,-68.64305878,2590,FALSE,FALSE,530,405,0,-1,0,0,1966,1974,9,TRUE
01AD008,LONG (LAC) PRES DE LES ETROITS,QC,6,D,,47.39083099,-68.89833069,108,FALSE,FALSE,740,405,0,-1,0,0,1972,1974,3,FALSE
01AD009,CABANO (RIVIERE) AU LAC LONG,QC,6,D,,47.46443939,-69.00193787,172,FALSE,FALSE,740,405,0,-1,0,0,1973,1982,10,FALSE
01AD012,SAINT-FRANCOIS (RIVIERE) EN AVAL DU LAC SAINT-FRANCOIS,QC,6,D,,47.72472,-69.28333282,58.59999847,FALSE,FALSE,740,405,-1,0,0,0,1967,1968,2,FALSE
01AD013,SAINT-FRANCOIS (RIVIERE) EN AVAL DU LAC SAINT-FRANCOIS,QC,6,D,,47.71916962,-69.28388977,59.79999924,FALSE,FALSE,740,405,-1,0,0,0,1969,1972,4,FALSE
01AD014,POHENEGAMOOK (LAC) A ESTCOURT,QC,6,D,,47.45999908,-69.22556305,389,FALSE,FALSE,740,405,0,-1,0,0,1968,1982,15,FALSE
01AD015,MADAWASKA (RIVIERE) A 6 KM EN AVAL DU BARRAGE TEMISCOUATA,QC,6,A,,47.53850174,-68.59179688,2712,FALSE,TRUE,740,,-1,0,0,0,2004,2007,4,FALSE
01AE001,FISH RIVER NEAR FORT KENT,ME,7,A,,47.23749924,-68.58277893,2260,FALSE,FALSE,600,42,-1,0,0,0,1981,2014,34,FALSE
01AF002,SAINT JOHN RIVER AT GRAND FALLS,NB,7,A,,47.03889084,-67.73972321,21900,FALSE,TRUE,647,35,-1,-1,0,0,1930,2017,88,TRUE
01AF003,GREEN RIVER NEAR RIVIERE-VERTE,NB,7,D,,47.33499908,-68.13500214,1150,FALSE,FALSE,647,10,-1,0,0,0,1962,1993,32,TRUE
01AF006,BLACK BROOK NEAR ST-ANDRE-DE-MADAWASKA,NB,7,D,D,47.0913887,-67.73139191,14.19999981,FALSE,FALSE,,10,-1,0,-1,-1,1971,1974,4,FALSE
01AF007,GRANDE RIVIERE AT VIOLETTE BRIDGE,NB,7,A,D,47.24697113,-67.92127991,339,FALSE,TRUE,647,10,-1,-1,-1,-1,1977,2017,41,FALSE
01AF008,SAINT JOHN RIVER AT THE FALLS AT GRAND FALLS,NB,7,D,,47.0513916,-67.73860931,,FALSE,FALSE,,35,0,-1,0,0,1986,1988,3,TRUE
01AF009,IROQUOIS RIVER AT MOULIN MORNEAULT,NB,7,A,,47.45782852,-68.35682678,182,FALSE,TRUE,647,10,-1,-1,0,0,1991,2017,27,FALSE
01AF010,GREEN RIVER AT DEUXIEME SAULT,NB,7,D,,47.47055817,-68.23555756,1030,FALSE,FALSE,145,10,-1,0,0,0,1995,2010,16,TRUE
01AF011,LITTLE RIVER NEAR GRAND FALLS,NB,7,D,,47.07194138,-67.70777893,380,FALSE,FALSE,647,10,-1,0,0,0,1996,1998,3,FALSE
01AG002,LIMESTONE STREAM AT FOUR FALLS,NB,7,D,,46.82833099,-67.74305725,199,FALSE,FALSE,647,10,-1,0,0,0,1967,1993,27,FALSE
01AG003,AROOSTOOK RIVER NEAR TINKER,NB,7,A,,46.81636047,-67.75196838,6060,FALSE,TRUE,647,10,-1,-1,0,0,1975,2017,43,TRUE
01AH001,TOBIQUE RIVER AT ARTHURETTE,NB,7,D,,46.79666901,-67.48139191,4140,FALSE,FALSE,,,-1,0,0,0,1918,1933,16,FALSE
01AH002,TOBIQUE RIVER AT RILEY BROOK,NB,7,A,,47.17303085,-67.2108078,2230,FALSE,TRUE,647,10,-1,-1,0,0,1954,2017,64,TRUE
01AH003,TOBIQUE RIVER AT PLASTER ROCK,NB,7,D,,46.90499878,-67.39499664,3130,FALSE,FALSE,647,10,-1,-1,0,0,1954,1995,40,TRUE
01AH004,TOBIQUE RIVER AT NARROWS,NB,7,D,,46.79167175,-67.68332672,4330,FALSE,FALSE,405,10,-1,0,0,0,1953,1999,47,TRUE
01AH005,MAMOZEKEL RIVER NEAR CAMPBELL RIVER,NB,7,D,,47.2508316,-67.14221954,230,FALSE,FALSE,,10,-1,0,0,0,1972,1990,19,FALSE
01AJ001,SAINT JOHN RIVER NEAR EAST FLORENCEVILLE,NB,7,D,,46.47000122,-67.58972168,34200,FALSE,FALSE,647,35,-1,0,0,0,1951,1995,45,TRUE
01AJ002,SAINT JOHN RIVER AT WOODSTOCK,NB,7,D,,46.15639114,-67.5736084,,FALSE,FALSE,405,10,0,-1,0,0,1962,1967,6,TRUE
01AJ003,MEDUXNEKEAG RIVER NEAR BELLEVILLE,NB,7,A,,46.21622086,-67.72794342,1210,FALSE,TRUE,647,10,-1,-1,0,0,1967,2017,51,FALSE
01AJ004,BIG PRESQUE ISLE STREAM AT TRACEY MILLS,NB,7,A,,46.43835831,-67.73844147,484,TRUE,TRUE,647,10,-1,-1,0,0,1967,2017,51,FALSE
01AJ005,SAINT JOHN RIVER AT HARTLAND,NB,7,D,,46.30611038,-67.53250122,,FALSE,FALSE,,35,0,-1,0,0,1969,1979,11,TRUE
01AJ006,HOLMES BROOK AT MOOSE MOUNTAIN,NB,7,D,D,46.61278152,-67.61055756,7.769999981,FALSE,FALSE,,10,-1,0,-1,-1,1971,1974,4,FALSE
01AJ007,HOLMES BROOK NEAR HOLMESVILLE,NB,7,D,D,46.57611084,-67.59528351,31.29999924,FALSE,FALSE,,10,-1,0,-1,-1,1971,1979,9,FALSE
01AJ008,SAINT JOHN RIVER AT HARTLAND SALMON POOL,NB,7,D,,46.2983284,-67.52916718,,FALSE,FALSE,647,35,0,-1,0,0,1973,1993,21,TRUE
01AJ009,SAINT JOHN RIVER AT SIMONDS,NB,7,D,,46.33750153,-67.55528259,35000,FALSE,FALSE,647,35,-1,-1,0,0,1974,1995,16,TRUE
01AJ010,BECAGUIMEC STREAM AT COLDSTREAM,NB,7,A,D,46.34088898,-67.46511078,350,TRUE,TRUE,647,10,-1,-1,-1,-1,1973,2017,45,FALSE
01AJ011,COLD STREAM AT COLDSTREAM,NB,7,D,,46.34222031,-67.46916962,156,FALSE,FALSE,647,10,-1,0,0,0,1973,1993,21,FALSE
01AJ012,SAINT JOHN RIVER AT BEECHWOOD GENERATING STATION,NB,7,D,,46.54000092,-67.67111206,33700,FALSE,FALSE,405,10,-1,0,0,0,1995,1999,5,TRUE
01AJ013,LITTLE PRESQUE ISLE STREAM NEAR WATERVILLE,NB,7,D,,46.27222061,-67.56999969,130,FALSE,FALSE,647,10,-1,0,0,0,1996,1998,3,FALSE
01AK001,SHOGOMOC STREAM NEAR TRANS CANADA HIGHWAY,NB,7,A,,45.94353104,-67.32035828,234,TRUE,TRUE,647,10,-1,-1,0,0,1918,2017,99,FALSE
01AK002,SAINT JOHN RIVER AT POKIOK,NB,7,D,,45.96667099,-67.2416687,38900,FALSE,FALSE,,,-1,0,0,0,1918,1967,50,TRUE
01AK003,SAINT JOHN RIVER AT FREDERICTON,NB,7,A,,45.96619034,-66.65161133,,FALSE,TRUE,647,35,0,-1,0,0,1929,2017,89,TRUE
01AK004,SAINT JOHN RIVER BELOW MACTAQUAC,NB,7,D,D,45.96221924,-66.83083344,39900,FALSE,FALSE,647,35,-1,-1,-1,-1,1961,1995,30,TRUE
01AK005,MIDDLE BRANCH NASHWAAKSIS STREAM NEAR ROYAL ROAD,NB,7,D,D,46.03499985,-66.70139313,26.89999962,FALSE,FALSE,647,10,-1,0,-1,-1,1965,1993,29,FALSE
01AK006,MIDDLE BRANCH NASHWAAKSIS STREAM AT SANDWITH'S FARM,NB,7,A,,46.08280945,-66.73303223,5.699999809,FALSE,TRUE,647,10,-1,-1,0,0,1966,2017,52,FALSE
01AK007,NACKAWIC STREAM NEAR TEMPERANCE VALE,NB,7,A,,46.04877853,-67.23960876,240,FALSE,TRUE,647,10,-1,-1,0,0,1967,2017,51,FALSE
01AK008,EEL RIVER NEAR SCOTT SIDING,NB,7,D,,45.9366684,-67.54694366,531,FALSE,FALSE,647,10,-1,0,0,0,1974,1993,20,FALSE
01AK009,SAINT JOHN RIVER AT MACTAQUAC GENERATING STATION,NB,7,D,,45.95666885,-66.86472321,,FALSE,FALSE,647,35,0,-1,0,0,1980,1993,14,TRUE
01AK010,SAINT JOHN RIVER AT MACTAQUAC GENERATING STATION,NB,7,D,,45.95666885,-66.86472321,39900,FALSE,FALSE,405,10,-1,0,0,0,1995,1999,5,TRUE
01AL001,NASHWAAK RIVER AT PENNIAC,NB,7,D,,46.00917053,-66.58306122,1660,FALSE,FALSE,400,10,-1,0,0,0,1918,1919,2,FALSE
01AL002,NASHWAAK RIVER AT DURHAM BRIDGE,NB,7,A,D,46.12591934,-66.61131287,1450,FALSE,TRUE,647,35,-1,-1,-1,-1,1962,2017,56,FALSE
01AL003,HAYDEN BROOK NEAR NARROWS MOUNTAIN,NB,7,D,,46.29888916,-67.03694153,6.480000019,FALSE,FALSE,647,10,-1,0,0,0,1970,1993,24,FALSE
01AL004,NARROWS MOUNTAIN BROOK NEAR NARROWS MOUNTAIN,NB,7,A,D,46.27716827,-67.02139282,3.890000105,FALSE,TRUE,647,10,-1,-1,-1,-1,1972,2017,46,FALSE
01AL005,"NARROWS MOUNTAIN BROOK, BRANCH NO.1, NEAR NARROWS MOUNTAIN",NB,7,D,,46.27693939,-67.04360962,0.800000012,FALSE,FALSE,,10,-1,0,0,0,1975,1980,5,FALSE
01AL006,"NARROWS MOUNTAIN BROOK, BRANCH NO.2, NEAR NARROWS MOUNTAIN",NB,7,D,,46.27693939,-67.04332733,0.910000026,FALSE,FALSE,,10,-1,0,0,0,1975,1980,5,FALSE
01AL007,"NARROWS MOUNTAIN BROOK, BRANCH NO.3, NEAR NARROWS MOUNTAIN",NB,7,D,,46.27944183,-67.03639221,0.409999996,FALSE,FALSE,,10,-1,0,0,0,1977,1980,4,FALSE
01AL008,NASHWAAK RIVER AT STANLEY,NB,7,D,,46.28305817,-66.73750305,641,FALSE,FALSE,647,10,-1,-1,0,0,1982,1995,12,FALSE
01AM001,NORTH BRANCH OROMOCTO RIVER AT TRACY,NB,7,A,,45.67377853,-66.68289185,557,FALSE,TRUE,647,10,-1,-1,0,0,1962,2017,56,FALSE
01AN001,CASTAWAY STREAM NEAR CASTAWAY,NB,7,D,,46.2983284,-65.71193695,34.40000153,FALSE,FALSE,647,10,-1,0,0,0,1972,1993,22,FALSE
01AN002,SALMON RIVER AT CASTAWAY,NB,7,A,,46.29072189,-65.7227478,1050,FALSE,TRUE,647,10,-1,-1,0,0,1974,2017,44,FALSE
01AO001,SAINT JOHN RIVER AT OROMOCTO,NB,7,D,,45.8555603,-66.47222137,,FALSE,FALSE,,10,0,-1,0,0,1918,1949,32,FALSE
01AO002,SAINT JOHN RIVER AT MAUGERVILLE,NB,7,A,,45.86647034,-66.45317078,,FALSE,TRUE,647,35,0,-1,0,0,1965,2017,53,TRUE
01AO003,GRAND LAKE AT NEWCASTLE CREEK,NB,7,A,,46.0564003,-66.00569916,,FALSE,TRUE,647,35,0,-1,0,0,1965,2017,53,TRUE
01AO004,JEMSEG RIVER AT JEMSEG,NB,7,A,,45.82891846,-66.11541748,,FALSE,TRUE,647,35,0,-1,0,0,1966,2017,52,TRUE
01AO009,BURPEE MILLSTREAM NEAR FERNMOUNT,NB,7,D,,45.95666885,-66.31139374,93.19999695,FALSE,FALSE,647,10,-1,0,0,0,1976,1993,18,FALSE
01AO010,FRENCH LAKE AT LAKEVILLE CORNER,NB,7,A,,45.90882874,-66.25643921,,FALSE,TRUE,647,35,0,-1,0,0,1980,2017,38,TRUE
01AO011,SAINT JOHN RIVER AT UPPER GAGETOWN,NB,7,A,,45.84725189,-66.23486328,,FALSE,TRUE,647,35,0,-1,0,0,1994,2017,24,TRUE
01AO012,SAINT JOHN RIVER AT GAGETOWN,NB,7,A,,45.76866913,-66.14035797,,FALSE,TRUE,647,35,0,-1,0,0,1994,2017,24,TRUE
01AP001,KENNEBECASIS RIVER AT NORTON,NB,7,D,,45.63582993,-65.70166779,1210,FALSE,FALSE,,,-1,0,0,0,1918,1926,9,FALSE
01AP002,CANAAN RIVER AT EAST CANAAN,NB,7,A,,46.07236099,-65.36638641,668,TRUE,TRUE,647,10,-1,-1,0,0,1925,2017,73,FALSE
01AP003,SAINT JOHN RIVER AT OAK POINT,NB,7,A,,45.51942062,-66.07660675,,FALSE,TRUE,647,35,0,-1,0,0,1923,2017,95,TRUE
01AP004,KENNEBECASIS RIVER AT APOHAQUI,NB,7,A,D,45.70138931,-65.6016922,1100,TRUE,TRUE,647,35,-1,-1,-1,-1,1961,2017,57,FALSE
01AP005,SAINT JOHN RIVER AT SAINT JOHN,NB,7,A,,45.27339172,-66.08889008,,FALSE,TRUE,647,35,0,-1,0,0,1966,2017,52,TRUE
01AP006,NEREPIS RIVER NEAR FOWLERS CORNER,NB,7,A,,45.50344086,-66.31896973,293,FALSE,TRUE,647,10,-1,-1,0,0,1976,2017,27,FALSE
01AP009,PARLEE BROOK BELOW ARNOLDS BRIDGE,NB,7,D,,45.67250061,-65.41832733,35.40000153,FALSE,FALSE,647,10,-1,0,0,0,1989,1993,5,FALSE
01AP010,OTNABOG STREAM ABOVE OTNABOG LAKE,NB,7,D,,45.70550156,-66.19200134,,FALSE,FALSE,647,10,0,-1,0,0,2009,2012,4,FALSE
01AQ001,LEPREAU RIVER AT LEPREAU,NB,7,A,,45.16978073,-66.46827698,239,TRUE,TRUE,647,10,-1,-1,0,0,1916,2018,103,FALSE
01AQ002,MAGAGUADAVIC RIVER AT ELMCROFT,NB,7,A,,45.27333069,-66.80667114,1420,FALSE,TRUE,647,10,-1,-1,0,0,1917,2017,92,TRUE
01AQ003,WEST MUSQUASH RIVER AT MUSQUASH,NB,7,D,,45.18806076,-66.35166931,210,FALSE,FALSE,405,,-1,0,0,0,1920,1934,9,TRUE
01AQ004,EAST MUSQUASH RIVER AT MUSQUASH,NB,7,D,,45.20471954,-66.32611084,179,FALSE,FALSE,405,,-1,0,0,0,1920,1934,8,TRUE
01AQ005,MAGAGUADAVIC RIVER AT SECOND FALLS,NB,7,D,,45.23167038,-66.84333038,1540,FALSE,FALSE,,,-1,0,0,0,1928,1933,6,TRUE
01AQ006,LITTLE LEPREAU RIVER NEAR LEPREAU,NB,7,D,,45.1391716,-66.44833374,38.29999924,FALSE,FALSE,,10,-1,0,0,0,1976,1976,1,FALSE
01AQ007,MAGAGUADAVIC LAKE NEAR UPPER MAGAGUADAVIC,NB,7,A,,45.71974945,-67.18356323,,FALSE,TRUE,647,35,0,-1,0,0,1979,2017,38,TRUE
01AQ008,PISKAHEGAN STREAM NEAR PLEASANT MOUNTAIN,NB,7,D,,45.4180603,-66.88694,197,FALSE,FALSE,647,10,-1,0,0,0,1983,1995,13,FALSE
01AQ009,LAKE UTOPIA AT CANAL,NB,7,D,,45.16027832,-66.82778168,,FALSE,FALSE,647,35,0,-1,0,0,1985,1993,9,TRUE
01AR001,DENNIS STREAM AT MOORES MILLS,NB,7,D,,45.29278183,-67.2722168,62.20000076,FALSE,FALSE,,,-1,0,0,0,1919,1920,2,FALSE
01AR002,EEL BROOK NEAR NORTH HEAD,NB,7,D,,44.79138947,-66.78138733,2.849999905,FALSE,FALSE,,,-1,0,0,0,1919,1967,4,FALSE
01AR003,ST. CROIX RIVER NEAR BAILEYVILLE,NB,7,D,,45.26528168,-67.47666931,3420,FALSE,FALSE,,10,-1,0,0,0,1919,1983,65,TRUE
01AR004,ST. CROIX RIVER AT VANCEBORO,ME,7,A,,45.56888962,-67.42971802,1080,FALSE,FALSE,600,42,-1,0,0,0,1928,2015,88,TRUE
01AR005,ST. CROIX RIVER AT BARING,ME,7,A,,45.13666916,-67.31806183,3550,FALSE,FALSE,600,42,-1,0,0,0,1975,2015,41,TRUE
01AR006,DENNIS STREAM NEAR ST. STEPHEN,NB,7,A,D,45.20903015,-67.26215363,115,FALSE,TRUE,647,10,-1,-1,-1,-1,1966,2017,52,TRUE
01AR007,BOCABEC RIVER AT OUTLET OF KERR LAKE,NB,7,D,,45.20750046,-67.0194397,12.39999962,FALSE,FALSE,,,-1,0,0,0,1966,1968,3,FALSE
01AR008,BOCABEC RIVER ABOVE TIDE,NB,7,D,,45.19306183,-66.99889374,43,FALSE,FALSE,,10,-1,0,0,0,1966,1979,14,FALSE
01AR009,GRAND LAKE AT FOREST CITY,ME,7,A,,45.66489029,-67.73589325,,FALSE,TRUE,647,42,0,-1,0,0,1969,2018,50,TRUE
01AR010,SPEDNIC LAKE AT ST. CROIX,NB,7,A,,45.5692215,-67.42725372,,FALSE,TRUE,647,35,0,-1,0,0,1967,2018,51,TRUE
01AR011,FOREST CITY STREAM BELOW FOREST CITY DAM,ME,7,A,,45.66416931,-67.73355865,357,FALSE,TRUE,647,42,-1,-1,0,0,1975,2018,44,TRUE
01AR012,CHAMCOOK STREAM AT LITTLE CHAMCOOK LAKE OUTLET,NB,7,D,,45.15721893,-67.09610748,,FALSE,FALSE,647,10,-1,0,0,0,1968,1993,26,FALSE
01AR013,GRAND FALLS FLOWAGE AT GRAND FALLS,ME,7,A,,45.27432251,-67.47963715,,FALSE,TRUE,647,42,0,-1,0,0,1980,2018,39,TRUE
01AR014,ST. CROIX RIVER AT MILLTOWN DAM,NB,7,A,,45.17522049,-67.29290009,,FALSE,TRUE,647,63,0,-1,0,0,2006,2018,13,TRUE
01BA001,RESTIGOUCHE RIVER ABOVE KEDGWICK RIVER,NB,7,D,,47.65639114,-67.49417114,1570,FALSE,FALSE,,10,-1,0,0,0,1973,1979,7,FALSE
01BC001,RESTIGOUCHE RIVER BELOW KEDGWICK RIVER,NB,7,A,,47.66707993,-67.483078,3160,TRUE,TRUE,647,10,-1,-1,0,0,1962,2017,56,FALSE
01BD001,MATAPEDIA (RIVIERE) EN AMONT DE LA RIVIERE ASSEMETQUAGAN,QC,6,D,,48.08443832,-67.09860992,2770,FALSE,FALSE,740,405,-1,0,0,0,1965,1968,4,TRUE
01BD002,MATAPEDIA (RIVIERE) EN AMONT DE LA RIVIERE ASSEMETQUAGAN,QC,6,D,D,48.08666992,-67.10056305,2760,FALSE,FALSE,740,405,-1,0,0,0,1968,1999,32,FALSE
01BD004,MATAPEDIA (LAC) A VAL-BRILLANT,QC,6,D,,48.53388977,-67.54556274,558,FALSE,FALSE,740,405,-1,-1,0,0,1966,1983,18,FALSE
01BD005,LAC AU SAUMON,QC,6,D,,48.42110825,-67.32417297,1210,FALSE,FALSE,740,405,0,-1,0,0,1968,1968,1,FALSE
01BD008,MATAPEDIA (RIVIERE) PRES DE AMQUI,QC,6,A,,48.4916687,-67.44999695,558,FALSE,TRUE,740,405,-1,-1,0,0,1982,2013,31,FALSE
01BD009,MATAPEDIA (RIVIERE) A 4 KM EN AMONT DE L'ASSEMETQUAGAN,QC,6,A,,48.10789871,-67.13020325,2756,FALSE,TRUE,740,405,-1,0,0,0,1996,2013,18,FALSE
01BE001,UPSALQUITCH RIVER AT UPSALQUITCH,NB,7,A,,47.83246994,-66.88707733,2270,TRUE,TRUE,647,10,-1,-1,0,0,1918,2017,91,FALSE
01BF001,NOUVELLE (RIVIERE) AU PONT,QC,6,D,,48.15721893,-66.34944153,1140,FALSE,FALSE,740,405,-1,0,0,0,1964,2001,38,FALSE
01BF002,NOUVELLE (RIVIERE) EN AVAL DU PONT,QC,6,D,,48.13555908,-66.31944275,1160,FALSE,FALSE,740,405,0,-1,0,0,1967,1970,4,TRUE
01BF003,NOUVELLE (RIVIERE) EN AMONT DU PONT,QC,6,D,,48.16167068,-66.38027954,867,FALSE,FALSE,740,405,0,-1,0,0,1967,1970,4,TRUE
01BF004,"NOUVELLE (RIVIERE) A 0,2 KM EN AMONT DU PONT-ROUTE 132 A NOUVELLE",QC,6,A,,48.15879822,-66.34880066,1139,FALSE,TRUE,740,,-1,0,0,0,2002,2013,12,FALSE
01BG001,CASCAPEDIA (PETITE RIVIERE) EN AMONT DU PONT,QC,6,D,,48.18917084,-65.81194305,1390,FALSE,FALSE,740,405,-1,0,0,0,1961,1981,21,FALSE
01BG002,BONAVENTURE (RIVIERE) EN AMONT DU PONT,QC,6,D,,48.09999847,-65.46166992,2150,FALSE,FALSE,740,405,-1,0,0,0,1965,1983,19,FALSE
01BG003,CASCAPEDIA (RIVIERE) EN AVAL DU LAC CASCAPEDIA,QC,6,D,,48.66638947,-66.18943787,1480,FALSE,FALSE,740,405,-1,0,0,0,1966,1979,14,FALSE
01BG004,CASCAPEDIA (RIVIERE) EN AMONT DE LA RIVIERE ANGERS,QC,6,D,,48.31777954,-65.97250366,2400,FALSE,FALSE,740,405,-1,0,0,0,1968,1972,5,FALSE
01BG005,CASCAPEDIA (RIVIERE) EN AVAL DU RUISSEAU BERRY,QC,6,A,,48.62833023,-66.1680603,1680,FALSE,TRUE,740,405,-1,0,0,0,1978,2013,36,FALSE
01BG006,BASTIEN (RUISSEAU) EN AMONT DU PONT,QC,6,D,D,48.10971832,-66.12693787,12.39999962,FALSE,FALSE,740,405,-1,0,0,0,1969,1971,3,FALSE
01BG007,CHALEURS (BAIE DES) A CARLETON,QC,6,D,,48.09027863,-66.11611176,,FALSE,FALSE,740,405,0,-1,0,0,1969,1970,2,FALSE
01BG008,CASCAPEDIA (PETITE RIVIERE) A SAINT-EDGAR,QC,6,A,,48.23083115,-65.73500061,1340,FALSE,TRUE,740,405,-1,0,0,0,1980,2001,22,FALSE
01BG009,BONAVENTURE (RIVIERE) EN AMONT DU RUISSEAU CREUX,QC,6,A,,48.18611145,-65.55860901,1910,FALSE,TRUE,740,,-1,0,0,0,1982,2013,32,FALSE
01BG010,CASCAPEDIA (PETITE RIVIERE) A 0.9 KM RIVE DROITE AVAL  PONT-ROUTE A SAINT-EDGAR,QC,6,D,,48.2322998,-65.73410034,1340,FALSE,FALSE,740,,0,-1,0,0,2005,2011,5,FALSE
01BH001,DARTMOUTH (RIVIERE) PRES DE CORTEREAL,QC,6,D,,48.93305969,-64.63555908,748,FALSE,FALSE,740,405,-1,0,0,0,1945,1969,25,FALSE
01BH002,YORK (RIVIERE) A SUNNY BANK,QC,6,D,D,48.8341713,-64.625,1010,FALSE,FALSE,740,405,-1,0,0,0,1945,1981,37,FALSE
01BH003,PORPHYRE (RUISSEAU),QC,6,D,,48.9458313,-65.48944092,30.20000076,FALSE,FALSE,740,405,-1,0,0,0,1953,1954,2,FALSE
01BH005,DARTMOUTH (RIVIERE) EN AMONT DU RUISSEAU DU PAS DE DAME,QC,6,A,,48.97972107,-64.6986084,645,TRUE,TRUE,740,405,-1,-1,0,0,1970,2013,35,FALSE
01BH007,GRANDE-RIVIERE OUEST (LA),QC,6,D,,48.47777939,-64.52861023,534,FALSE,FALSE,740,405,-1,0,0,0,1972,1997,26,FALSE
01BH008,SAINT-JEAN (RIVIERE),QC,6,D,,48.7716713,-64.52139282,1090,FALSE,FALSE,740,405,-1,0,0,0,1979,1989,11,FALSE
01BH009,YORK RIVIERE) EN AMONT DU RUISSEAU D'ARGENT,QC,6,D,,48.83166885,-64.68499756,972,FALSE,FALSE,740,405,-1,0,0,0,1979,1980,2,FALSE
01BH010,"YORK (RIVIERE) A 1,4 KM EN AVAL DU RUISSEAU DINNER ISLAND",QC,6,A,,48.80667114,-64.92111206,659,FALSE,TRUE,740,405,-1,-1,0,0,1980,2013,25,FALSE
01BH011,YORK (RIVIERE) EN AVAL DU RUISSEAU DES ETROITS,QC,6,D,,48.7983284,-64.94777679,637,FALSE,FALSE,740,,-1,0,0,0,1988,1989,2,FALSE
01BH012,SAINT-JEAN (RIVIERE) EN AMONT DU PONT-ROUTE 132,QC,6,D,,48.76889038,-64.51499939,1090,FALSE,FALSE,740,,-1,0,0,0,1990,2001,12,FALSE
01BJ001,TETAGOUCHE RIVER NEAR WEST BATHURST,NB,7,D,,47.65583038,-65.69361115,363,FALSE,FALSE,647,10,-1,0,0,0,1922,1995,57,FALSE
01BJ002,EEL RIVER AT EEL RIVER CROSSING,NB,7,D,,48.01306152,-66.42333221,100,FALSE,FALSE,,,-1,0,0,0,1962,1963,2,FALSE
01BJ003,JACQUET RIVER NEAR DURHAM CENTRE,NB,7,A,,47.89381027,-66.02522278,510,TRUE,TRUE,647,10,-1,-1,0,0,1964,2017,54,FALSE
01BJ004,EEL RIVER NEAR EEL RIVER CROSSING,NB,7,D,,48.01443863,-66.4383316,88.59999847,FALSE,FALSE,,10,-1,0,0,0,1967,1983,17,FALSE
01BJ006,LITTLE RIVER AT CARROLL'S FARM,NB,7,D,,47.56750107,-65.70194244,,FALSE,FALSE,,10,-1,0,0,0,1975,1979,5,TRUE
01BJ007,RESTIGOUCHE RIVER ABOVE RAFTING GROUND BROOK,NB,7,A,,47.90866852,-66.94805908,7740,FALSE,TRUE,647,10,-1,-1,0,0,1968,2017,50,FALSE
01BJ008,MILLSTREAM RIVER AT ROBERTVILLE,NB,7,D,,47.70222092,-65.77639008,105,FALSE,FALSE,,,-1,0,0,0,1969,1972,4,FALSE
01BJ009,WALKER BROOK AT CAMPBELLTON,NB,7,D,,47.98806,-66.69693756,60.79999924,FALSE,FALSE,647,10,-1,0,0,0,1980,1993,14,TRUE
01BJ010,MIDDLE RIVER NEAR BATHURST,NB,7,A,D,47.60839081,-65.72180939,217,FALSE,TRUE,647,10,-1,-1,0,0,1981,2017,37,FALSE
01BJ011,NIGADOO RIVER NEAR ALCIDA,NB,7,D,,47.74000168,-65.81278229,123,FALSE,FALSE,647,10,-1,0,0,0,1981,1993,13,FALSE
01BJ012,EEL RIVER NEAR DUNDEE,NB,7,A,,47.98788834,-66.49060822,43.20000076,FALSE,TRUE,647,10,-1,-1,0,0,1984,2017,34,FALSE
01BK001,NEPISIGUIT RIVER AT BATHURST MINES,NB,7,D,,47.38888931,-65.8272171,1810,FALSE,FALSE,,,-1,0,0,0,1918,1921,4,FALSE
01BK002,NEPISIGUIT RIVER AT NEPISIGUIT NARROWS,NB,7,D,,47.36193848,-65.84500122,1790,FALSE,FALSE,,,-1,0,0,0,1922,1924,3,FALSE
01BK003,NEPISIGUIT RIVER AT NEPISIGUIT FALLS,NB,7,D,,47.40666962,-65.79499817,1840,FALSE,FALSE,405,10,-1,0,0,0,1921,2005,85,TRUE
01BK004,NEPISIGUIT RIVER NEAR PABINEAU FALLS,NB,7,D,,47.49443817,-65.68055725,2090,FALSE,FALSE,,10,-1,0,0,0,1957,1974,18,TRUE
01BK005,FORTY MILE BROOK AT CARIBOU DEPOT,NB,7,D,,47.56777954,-66.28500366,14.19999981,FALSE,FALSE,,10,-1,0,0,0,1981,1984,4,TRUE
01BK006,FORTY MILE BROOK (WEST BRANCH) AT CARIBOU DEPOT,NB,7,D,,47.55944061,-66.27832794,13,FALSE,FALSE,,10,-1,0,0,0,1981,1989,9,FALSE
01BL001,BASS RIVER AT BASS RIVER,NB,7,D,,47.65000153,-65.57778168,175,FALSE,FALSE,647,10,-1,0,0,0,1965,1991,27,FALSE
01BL002,RIVIERE CARAQUET AT BURNSVILLE,NB,7,A,,47.70560837,-65.15538788,173,TRUE,TRUE,647,10,-1,-1,0,0,1969,2017,49,FALSE
01BL003,BIG TRACADIE RIVER AT MURCHY BRIDGE CROSSING,NB,7,A,,47.43577957,-65.10605621,383,FALSE,TRUE,647,10,-1,-1,0,0,1970,2017,48,FALSE
01BO001,SOUTHWEST MIRAMICHI RIVER AT BLACKVILLE,NB,7,A,D,46.73600006,-65.8256073,5050,TRUE,TRUE,647,10,-1,-1,-1,-1,1918,2017,75,FALSE
01BO002,RENOUS RIVER AT MCGRAW BROOK,NB,7,D,D,46.82138824,-66.11472321,611,FALSE,FALSE,647,10,-1,0,-1,-1,1965,1995,31,FALSE
01BO003,BARNABY RIVER BELOW SEMIWAGAN RIVER,NB,7,D,D,46.88861084,-65.59555817,484,FALSE,FALSE,647,10,-1,0,-1,-1,1973,1995,23,FALSE
01BO004,BARTIBOG RIVER BELOW HIGHWAY NO. 8,NB,7,D,,47.19083023,-65.39749908,316,FALSE,FALSE,647,10,-1,0,0,0,1978,1993,16,FALSE
01BP001,LITTLE SOUTHWEST MIRAMICHI RIVER AT LYTTLETON,NB,7,A,D,46.93597031,-65.90738678,1340,TRUE,TRUE,647,10,-1,-1,-1,-1,1951,2017,67,FALSE
01BP002,CATAMARAN BROOK AT REPAP ROAD BRIDGE,NB,7,A,,46.85655975,-66.19010925,28.70000076,FALSE,TRUE,647,10,-1,-1,0,0,1989,2017,29,FALSE
01BQ001,NORTHWEST MIRAMICHI RIVER AT TROUT BROOK,NB,7,A,D,47.09474945,-65.83650208,948,TRUE,TRUE,647,10,-1,-1,-1,-1,1961,2017,57,FALSE
01BQ002,LITTLE SOUTH BRANCH TOMOGONOPS RIVER AT FRESH WATER POND,NB,7,D,,47.29528046,-66.06500244,,FALSE,FALSE,647,10,-1,0,0,0,1967,1993,13,TRUE
01BQ003,LITTLE SOUTH BRANCH TOMOGONOPS RIVER BELOW B PIT,NB,7,D,,47.29111099,-66.04277802,,FALSE,FALSE,647,10,-1,0,0,0,1969,1995,24,TRUE
01BQ006,SOUTH BRANCH TOMOGONOPS RIVER NEAR HEATH STEEL MINES,NB,7,D,,47.25471878,-65.96721649,,FALSE,FALSE,647,10,-1,0,0,0,1969,1995,16,TRUE
01BQ007,TOMOGONOPS RIVER AT THE MOUTH,NB,7,D,,47.23305893,-65.83611298,158,FALSE,FALSE,,10,-1,0,0,0,1972,1979,8,TRUE
01BR001,KOUCHIBOUGUAC RIVER NEAR VAUTOUR,NB,7,D,,46.74332809,-65.20471954,177,FALSE,FALSE,647,10,-1,0,0,0,1930,1995,31,FALSE
01BS001,COAL BRANCH RIVER AT BEERSVILLE,NB,7,A,D,46.44393921,-65.06494141,166,TRUE,TRUE,647,10,-1,-1,-1,-1,1964,2017,54,FALSE
01BT001,KINNEAR RIVER NEAR HAUTE-ABOUJAGANE,NB,7,D,,46.15277863,-64.38500214,32.09999847,FALSE,FALSE,647,10,-1,0,0,0,1985,1993,9,FALSE
01BU001,PETITCODIAC RIVER NEAR SALISBURY,NB,7,D,,46.01667023,-65.06667328,746,FALSE,FALSE,,,-1,0,0,0,1928,1929,2,FALSE
01BU002,PETITCODIAC RIVER NEAR PETITCODIAC,NB,7,A,D,45.94638824,-65.16819,391,TRUE,TRUE,647,10,-1,-1,-1,-1,1961,2017,57,FALSE
01BU003,TURTLE CREEK AT TURTLE CREEK,NB,7,D,,45.95949936,-64.87799835,129,FALSE,FALSE,647,10,-1,0,0,0,1962,2010,49,FALSE
01BU004,PALMERS CREEK NEAR DORCHESTER,NB,7,D,D,45.88721848,-64.51638794,34.20000076,FALSE,FALSE,,10,-1,0,-1,-1,1966,1985,20,FALSE
01BU005,HAYWARD BROOK SITE NO. 1 NEAR PETITCODIAC,NB,7,D,D,45.86528015,-65.15805817,4.300000191,FALSE,FALSE,647,10,-1,0,0,0,1995,1998,4,FALSE
01BU006,HAYWARD BROOK SITE NO. 4 NEAR PETITCODIAC,NB,7,D,D,45.87805939,-65.18055725,1.370000005,FALSE,FALSE,647,10,-1,0,0,0,1995,1998,4,FALSE
01BU007,HAYWARD BROOK SITE NO. 5 NEAR PETITCODIAC,NB,7,D,D,45.8713913,-65.18499756,6.489999771,FALSE,FALSE,647,10,-1,0,0,0,1995,2001,7,FALSE
01BU008,HAYWARD BROOK SITE NO. 6 NEAR PETITCODIAC,NB,7,D,D,45.87305832,-65.18778229,2.339999914,FALSE,FALSE,647,10,-1,0,0,0,1995,2001,7,FALSE
01BU009,HOLMES BROOK SITE NO. 9 NEAR PETITCODIAC,NB,7,A,,45.88785934,-65.14678192,6.199999809,FALSE,TRUE,647,10,-1,-1,0,0,1995,2017,23,FALSE
01BU013,PETITCODIAC RIVER ABOVE TURTLE CREEK,NB,7,D,,46.04806137,-64.89611053,,FALSE,FALSE,647,35,0,-1,0,0,1999,2004,6,TRUE
01BU014,PETITCODIAC RIVER AT DOVER,NB,7,D,,45.99000168,-64.68332672,,FALSE,FALSE,647,35,0,-1,0,0,2003,2004,2,TRUE
01BU015,PETITCODIAC RIVER NEAR BEAUMONT,NB,7,D,,45.8713913,-64.56639099,,FALSE,FALSE,647,35,0,-1,0,0,2003,2004,2,TRUE
01BV001,MISPEC STREAM AT BLACK RIVER ROAD CROSSING,NB,7,D,,45.27027893,-65.89527893,137,FALSE,FALSE,,,-1,0,0,0,1918,1920,3,FALSE
01BV002,KINNIE BROOK AT FUNDY NATIONAL PARK,NB,7,D,,45.61167145,-64.96333313,6.480000019,FALSE,FALSE,,10,-1,0,0,0,1957,1958,2,FALSE
01BV003,UPPER SALMON RIVER AT ALMA,NB,7,D,,45.61000061,-64.95832825,181,FALSE,FALSE,,10,-1,0,0,0,1957,1958,2,FALSE
01BV004,BLACK RIVER AT GARNET SETTLEMENT,NB,7,A,,45.30657959,-65.84922028,40.40000153,FALSE,TRUE,647,10,-1,-1,0,0,1960,2018,32,FALSE
01BV005,RATCLIFFE BROOK BELOW OTTER LAKE,NB,7,D,,45.36777878,-65.8116684,29.29999924,FALSE,FALSE,,10,-1,0,0,0,1960,1971,12,FALSE
01BV006,POINT WOLFE RIVER AT FUNDY NATIONAL PARK,NB,7,A,,45.55855942,-65.01596832,130,TRUE,TRUE,647,10,-1,-1,0,0,1964,2017,54,FALSE
01BV007,UPPER SALMON RIVER NEAR ALMA,NB,7,D,,45.61111069,-64.95610809,181,FALSE,FALSE,,10,-1,0,0,0,1967,1979,13,FALSE
01BV008,BIG SALMON RIVER NEAR ST. MARTINS,NB,7,D,,45.42417145,-65.41166687,287,FALSE,FALSE,,10,-1,0,0,0,1970,1979,10,FALSE
01BV009,IMPOUNDMENT B AT NEW HORTON,NB,7,D,,45.69749832,-64.69471741,0.5,FALSE,FALSE,647,10,-1,0,0,0,1991,1994,4,FALSE
01BV010,DICKSON BROOK AT FUNDY NATIONAL PARK,NB,7,D,,45.59141922,-64.95706177,8.81000042,FALSE,FALSE,647,35,-1,0,0,0,2005,2010,6,FALSE
01CA001,CARRUTHERS BROOK NEAR HOWLAN,PE,7,D,,46.73527908,-64.22499847,38.79999924,FALSE,FALSE,,10,-1,0,0,0,1919,1922,4,TRUE
01CA002,TROUT RIVER NEAR TYNE VALLEY,PE,7,D,,46.5633316,-63.93999863,22.10000038,FALSE,FALSE,,10,-1,0,0,0,1919,1922,4,FALSE
01CA003,CARRUTHERS BROOK NEAR ST. ANTHONY,PE,7,A,,46.74411011,-64.18699646,46.79999924,TRUE,TRUE,647,10,-1,-1,0,0,1961,2017,57,FALSE
01CA004,SMELT CREEK NEAR ELLERSLIE,PE,7,D,D,46.60166931,-63.93722153,17.29999924,FALSE,FALSE,,10,-1,0,-1,-1,1967,1979,13,FALSE
01CA005,MIMINEGASH RIVER AT ST. LAWRENCE,PE,7,D,,46.84833145,-64.19777679,31.79999924,FALSE,FALSE,647,10,-1,0,0,0,1992,1994,3,FALSE
01CB001,DUNK RIVER AT ROGERS MILL,PE,7,D,,46.34222031,-63.61111069,98.59999847,FALSE,FALSE,,10,-1,0,0,0,1919,1933,15,TRUE
01CB002,DUNK RIVER AT WALL ROAD,PE,7,A,D,46.34585953,-63.6333313,114,FALSE,TRUE,647,10,-1,-1,-1,-1,1961,2017,57,TRUE
01CB003,PLAT RIVER AT SHERBROOKE,PE,7,D,,46.4233284,-63.77722168,4.510000229,FALSE,FALSE,,10,-1,0,0,0,1970,1982,13,TRUE
01CB004,WILMOT RIVER NEAR WILMOT VALLEY,PE,7,A,D,46.39331055,-63.6593895,45.40000153,TRUE,TRUE,647,10,-1,-1,-1,-1,1972,2017,46,TRUE
01CB005,NORTH BROOK NEAR WALL ROAD,PE,7,D,D,46.34693909,-63.63277817,12.89999962,FALSE,FALSE,,10,-1,0,-1,-1,1971,1987,17,FALSE
01CB006,EMERALD BROOK NEAR EMERALD,PE,7,D,D,46.35943985,-63.55805969,5.590000153,FALSE,FALSE,647,10,-1,0,-1,-1,1974,1992,19,FALSE
01CB007,EAST BRANCH DUNK RIVER AT ELLIOTT,PE,7,D,D,46.36306,-63.46332932,10.69999981,FALSE,FALSE,,10,-1,0,-1,-1,1974,1975,2,FALSE
01CB008,DUNK RIVER NEAR BREADALBANE,PE,7,D,D,46.35166931,-63.48833084,19.79999924,FALSE,FALSE,,10,-1,0,-1,-1,1974,1975,2,FALSE
01CB009,DUNK RIVER AT MCKENNA'S BRIDGE,PE,7,D,D,46.35250092,-63.54222107,53.09999847,FALSE,FALSE,,10,-1,0,-1,-1,1974,1975,2,FALSE
01CB010,DAMES BROOK NEAR NEWTON,PE,7,D,D,46.34693909,-63.55527878,16.20000076,FALSE,FALSE,,10,-1,0,-1,-1,1974,1975,2,FALSE
01CB011,DUNK RIVER ABOVE SCALES POND,PE,7,D,D,46.34860992,-63.57778168,80.59999847,FALSE,FALSE,,10,0,0,-1,0,1974,1974,1,FALSE
01CB012,ELMO RIVER NEAR SCALES POND,PE,7,D,D,46.3386116,-63.59777832,7.900000095,FALSE,FALSE,,10,-1,0,-1,-1,1974,1975,2,FALSE
01CB013,DUNK RIVER BELOW SCALES POND,PE,7,D,D,46.34333038,-63.61111069,98.59999847,FALSE,FALSE,,10,-1,0,-1,-1,1974,1974,1,TRUE
01CB014,SOUTHWEST BROOK NEAR MIDDLETON,PE,7,D,D,46.33472061,-63.63417053,23.39999962,FALSE,FALSE,,10,-1,0,-1,-1,1974,1975,2,FALSE
01CB015,CAPE TRAVERSE RIVER AT CARLETON,PE,7,D,,46.25667191,-63.65555954,6.889999866,FALSE,FALSE,647,,-1,0,0,0,1991,1992,2,FALSE
01CC001,HUNTER RIVER AT HUNTER RIVER,PE,7,D,,46.35971832,-63.34582901,41.5,FALSE,FALSE,,10,-1,0,0,0,1919,1922,4,TRUE
01CC002,WINTER RIVER NEAR SUFFOLK,PE,7,A,,46.33206177,-63.06547165,37.5,FALSE,TRUE,647,10,-1,-1,0,0,1967,2017,51,TRUE
01CC003,WINTER RIVER AT BRACKLEY WELLS PUMPING STATION,PE,7,D,,46.31499863,-63.1466713,4.920000076,FALSE,FALSE,,10,-1,0,0,0,1968,1990,23,TRUE
01CC004,WRIGHTS CREEK NEAR AVONLEA ROAD,PE,7,D,,46.27582932,-63.11193848,2.410000086,FALSE,FALSE,,10,-1,0,0,0,1976,1979,4,FALSE
01CC005,WEST RIVER AT RIVERDALE,PE,7,A,D,46.23139191,-63.35108185,70.09999847,FALSE,TRUE,647,10,-1,-1,0,0,1986,2017,32,FALSE
01CC006,CLYDE RIVER NEAR CLYDE RIVER,PE,7,D,,46.23556137,-63.26082993,26.79999924,FALSE,FALSE,647,,-1,0,0,0,1986,1994,9,FALSE
01CC007,CLARKS CREEK AT AUGUSTUS,PE,7,D,,46.32027817,-62.88388824,39.79999924,FALSE,FALSE,647,,-1,0,0,0,1990,1991,2,FALSE
01CC008,GLEN FINNAN RIVER AT TARANTUM,PE,7,D,,46.28749847,-62.95193863,24,FALSE,FALSE,647,,-1,0,0,0,1990,1991,2,FALSE
01CC009,HORNES CREEK AT MARSHFIELD,PE,7,D,,46.29721832,-63.07806015,5.900000095,FALSE,FALSE,647,,-1,0,0,0,1990,1991,2,FALSE
01CC010,WINTER RIVER AT UNION,PE,7,A,,46.31481171,-63.12335968,16.79999924,FALSE,TRUE,647,10,-1,-1,0,0,1992,2017,26,TRUE
01CC011,COLES CREEK AT MILTONVALE PUMPING STATION,PE,7,A,,46.31024933,-63.19488907,,FALSE,TRUE,647,10,-1,-1,0,0,2015,2016,2,FALSE
01CD001,MORELL RIVER AT MORELL,PE,7,D,,46.32833099,-62.69916916,133,FALSE,FALSE,,10,-1,0,0,0,1919,1921,3,TRUE
01CD002,MORELL RIVER AT PEAKES ROAD,PE,7,D,,46.31750107,-62.69944,129,FALSE,FALSE,647,10,-1,0,0,0,1961,1995,23,TRUE
01CD003,MORELL RIVER AT BANGOR,PE,7,D,,46.36111069,-62.70056152,147,FALSE,FALSE,647,10,-1,0,0,0,1964,1992,29,TRUE
01CD004,BOUGHTON RIVER NEAR UPTON,PE,7,D,,46.34194183,-62.53139114,22.89999962,FALSE,FALSE,,10,-1,0,0,0,1988,1989,2,FALSE
01CD005,BEAR RIVER AT ST. MARGARETS,PE,7,A,,46.45314026,-62.38233185,14.80000019,FALSE,TRUE,647,10,-1,-1,0,0,1995,2017,23,FALSE
01CE001,VERNON RIVER AT GLENCO ROAD CROSSING,PE,7,D,,46.19944,-62.82332993,16.79999924,FALSE,FALSE,,10,-1,0,0,0,1919,1933,15,FALSE
01CE002,MONTAGUE RIVER (NORTH BRANCH) ABOVE MONTAGUE POWERHOUSE,PE,7,D,,46.14944077,-62.69721985,49.59999847,FALSE,FALSE,,10,-1,0,0,0,1919,1933,15,TRUE
01CE003,BRUDENELL RIVER NEAR BRUDENELL,PE,7,D,D,46.20056152,-62.64944077,36,FALSE,FALSE,,10,-1,0,-1,-1,1965,1979,15,FALSE
01CE004,BRUDENELL RIVER AT BRUDENELL,PE,7,D,D,46.20193863,-62.65639114,33.09999847,FALSE,FALSE,647,10,-1,0,-1,-1,1979,1995,17,FALSE
01CE005,MONTAGUE RIVER NEAR HEAD OF MONTAGUE,PE,7,D,,46.15528107,-62.72610855,44.40000153,FALSE,FALSE,647,10,-1,0,0,0,1987,1994,8,FALSE
01CE006,CARDIGAN RIVER ABOVE CARDIGAN,PE,7,D,,46.23833084,-62.65639114,21.39999962,FALSE,FALSE,,10,-1,0,0,0,1988,1989,2,FALSE
01DA001,METEGHAN RIVER NEAR METEGHAN RIVER,NS,7,D,,44.21611023,-66.11721802,167,FALSE,FALSE,647,10,-1,0,0,0,1964,1999,36,TRUE
01DB001,SISSIBOO RIVER NEAR WEYMOUTH,NS,7,D,,44.4197197,-65.90693665,596,FALSE,FALSE,,10,-1,0,0,0,1915,1916,2,TRUE
01DB002,BEAR RIVER EAST BRANCH AT BEAR RIVER,NS,7,D,,44.56666946,-65.6333313,193,FALSE,FALSE,,10,-1,0,0,0,1915,1951,37,FALSE
01DC001,ALLAIN RIVER AT LEQUILLE,NS,7,D,,44.72360992,-65.49250031,148,FALSE,FALSE,,10,-1,0,0,0,1915,1919,5,TRUE
01DC002,NICTAUX RIVER AT NICTAUX FALLS,NS,7,D,,44.90916824,-65.03056335,298,FALSE,FALSE,,10,-1,0,0,0,1916,1920,5,TRUE
01DC003,PARADISE BROOK NEAR PARADISE,NS,7,D,,44.84333038,-65.18556213,107,FALSE,FALSE,,10,-1,0,0,0,1916,1949,34,FALSE
01DC005,ANNAPOLIS RIVER AT WILMOT,NS,7,A,D,44.94918823,-65.02938843,546,FALSE,TRUE,647,10,-1,-1,-1,-1,1963,2018,56,TRUE
01DC006,SOUTH ANNAPOLIS RIVER AT MILLVILLE,NS,7,D,,45.00167084,-64.82389069,119,FALSE,FALSE,,10,-1,0,0,0,1965,1979,15,TRUE
01DC007,ANNAPOLIS RIVER AT LAWRENCETOWN,NS,7,A,,44.88082886,-65.15792084,1020,FALSE,TRUE,647,10,-1,-1,0,0,1983,2018,31,TRUE
01DD001,GASPEREAU RIVER AT MARTIN'S BRIDGE,NS,7,D,,45.05971909,-64.38194275,486,FALSE,FALSE,,10,-1,0,0,0,1915,1920,6,TRUE
01DD002,CORNWALLIS RIVER AT CAMBRIDGE STATION,NS,7,A,,45.06478119,-64.6353302,90.80000305,FALSE,TRUE,647,10,-1,-1,0,0,2000,2018,19,FALSE
01DD003,GASPEREAU RIVER AT MILLRACE DIVERSION,NS,7,D,,45.05971909,-64.38194275,370,FALSE,FALSE,,10,-1,0,0,0,1915,1920,6,TRUE
01DD004,SHARPE BROOK AT LLOYDS,NS,7,D,D,45.02500153,-64.63722229,8.81000042,FALSE,FALSE,647,10,-1,0,-1,-1,1966,1995,30,FALSE
01DD005,NORTH BROOK AT SHEFFIELD MILLS,NS,7,A,,45.15055847,-64.47499847,15.69999981,FALSE,TRUE,647,10,-1,-1,0,0,2000,2018,19,FALSE
01DE002,ST. CROIX RIVER AT HARTVILLE,NS,7,D,,44.9516716,-64.02777863,287,FALSE,FALSE,,10,-1,0,0,0,1915,1934,12,TRUE
01DF001,KENNETCOOK RIVER AT KENNETCOOK,NS,7,D,,45.17583084,-63.72306061,179,FALSE,FALSE,,10,-1,0,0,0,1975,1975,1,FALSE
01DG001,STEWIACKE RIVER NEAR UPPER STEWIACKE,NS,7,D,,45.21527863,-62.99721909,420,FALSE,FALSE,,10,-1,0,0,0,1915,1926,12,TRUE
01DG002,FALL RIVER AT WAVERLEY,NS,7,D,,44.80667114,-63.60832977,46.40000153,FALSE,FALSE,,10,-1,0,0,0,1915,1921,6,TRUE
01DG003,BEAVERBANK RIVER NEAR KINSAC,NS,7,A,,44.85110855,-63.66389084,96.90000153,TRUE,TRUE,647,10,-1,-1,0,0,1921,2017,97,FALSE
01DG004,BENNERY BROOK NEAR BENNERY LAKE,NS,7,D,,44.90193939,-63.55361176,7.510000229,FALSE,FALSE,,10,-1,0,0,0,1959,1960,2,FALSE
01DG006,SHUBENACADIE RIVER AT ENFIELD,NS,7,D,,44.93193817,-63.53443909,389,FALSE,FALSE,647,10,-1,0,0,0,1974,1995,22,FALSE
01DG007,SHUBENACADIE RIVER AT LAKE THOMAS,NS,7,D,,44.81806183,-63.61360931,130,FALSE,FALSE,,10,-1,0,0,0,1984,1984,1,FALSE
01DG017,POWDER MILL LAKE BROOK NEAR WAVERLEY,NS,7,D,,44.77249908,-63.6072197,26.70000076,FALSE,FALSE,,10,-1,0,0,0,1984,1984,1,FALSE
01DG018,PEMBROKE RIVER AT GLENBERVIE,NS,7,D,D,45.26499939,-62.94139099,73.30000305,FALSE,FALSE,,10,-1,0,-1,-1,1978,1991,14,FALSE
01DG019,BLACK BROOK AT OLDHAM,NS,7,D,,44.91722107,-63.49417114,6.21999979,FALSE,FALSE,,10,-1,0,0,0,1978,1978,1,FALSE
01DG020,BENNERY BROOK SITE NO. 1,NS,7,D,,44.92832947,-63.53667068,28,FALSE,FALSE,,10,-1,0,0,0,1978,1978,1,FALSE
01DG021,BENNERY BROOK SITE NO. 2,NS,7,D,,44.91693878,-63.53805923,0.230000004,FALSE,FALSE,,10,-1,0,0,0,1978,1978,1,FALSE
01DG022,BENNERY BROOK SITE NO. 3,NS,7,D,,44.91611099,-63.54111099,1.350000024,FALSE,FALSE,,10,-1,0,0,0,1978,1978,1,FALSE
01DG023,BENNERY BROOK SITE NO. 4,NS,7,D,,44.90943909,-63.53889084,7.769999981,FALSE,FALSE,,10,-1,0,0,0,1978,1978,1,FALSE
01DG024,BENNERY BROOK SITE NO. 6,NS,7,D,,44.90943909,-63.53805923,14.5,FALSE,FALSE,,10,-1,0,0,0,1978,1978,1,FALSE
01DG025,BENNERY BROOK SITE NO. 5,NS,7,D,,44.90916824,-63.53778076,2.849999905,FALSE,FALSE,,10,-1,0,0,0,1978,1978,1,FALSE
01DG026,BENNERY BROOK SITE NO. 7,NS,7,D,,44.90639114,-63.53250122,8.550000191,FALSE,FALSE,,10,-1,0,0,0,1978,1978,1,FALSE
01DG027,BENNERY BROOK SITE NO. 8,NS,7,D,,44.90277863,-63.53166962,5.699999809,FALSE,FALSE,,10,-1,0,0,0,1978,1978,1,FALSE
01DG028,BENNERY BROOK SITE NO. 9,NS,7,D,,44.89833069,-63.52917099,2.329999924,FALSE,FALSE,,10,-1,0,0,0,1978,1978,1,FALSE
01DG029,BENNERY BROOK SITE NO. 10,NS,7,D,,44.89305878,-63.52722168,2.589999914,FALSE,FALSE,,10,-1,0,0,0,1978,1978,1,FALSE
01DG030,BENNERY BROOK SITE NO. 11,NS,7,D,,44.88499832,-63.53250122,0.49000001,FALSE,FALSE,,10,-1,0,0,0,1978,1978,1,FALSE
01DG031,BENNERY BROOK SITE NO. 14,NS,7,D,,44.8861084,-63.51971817,1.059999943,FALSE,FALSE,,10,-1,0,0,0,1978,1978,1,FALSE
01DG032,BENNERY BROOK SITE NO. 12,NS,7,D,,44.88277817,-63.52999878,0.340000004,FALSE,FALSE,,10,-1,0,0,0,1978,1978,1,FALSE
01DG033,BENNERY BROOK SITE NO. 15,NS,7,D,,44.87916946,-63.52528,0.360000014,FALSE,FALSE,,10,-1,0,0,0,1978,1978,1,FALSE
01DG035,SHUBENACADIE RIVER AT OUTLET LAKE WILLIAM,NS,7,D,,44.78499985,-63.5841713,76.09999847,FALSE,FALSE,,10,-1,0,0,0,1984,1984,1,FALSE
01DG041,MUDDY POND BROOK AT WAVERLEY,NS,7,D,,44.78916931,-63.61000061,2.579999924,FALSE,FALSE,,10,-1,0,0,0,1984,1984,1,FALSE
01DG043,ST ANDREWS RIVER AT STEWIACKE,NS,7,A,,45.12305832,-63.34975052,98.19999695,FALSE,TRUE,647,10,-1,-1,0,0,2011,2017,7,FALSE
01DH001,SALMON RIVER AT VALLEY,NS,7,D,,45.3833313,-63.19694138,316,FALSE,FALSE,,10,-1,0,0,0,1917,1982,11,FALSE
01DH002,SALMON RIVER AT MURRAY,NS,7,A,D,45.36917114,-63.21543884,363,FALSE,TRUE,647,10,-1,0,-1,-1,1964,1972,9,FALSE
01DH003,FRASER BROOK NEAR ARCHIBALD,NS,7,D,D,45.34305954,-63.1680603,10.10000038,FALSE,FALSE,,10,-1,0,-1,-1,1965,1991,27,FALSE
01DH004,NORTH RIVER AT NORTH RIVER,NS,7,A,D,45.42556,-63.25471878,202,FALSE,TRUE,647,10,-1,-1,0,0,1973,2017,22,FALSE
01DH005,SALMON RIVER AT UNION,NS,7,D,,45.39833069,-63.12305832,287,FALSE,FALSE,647,10,-1,0,0,0,1977,1999,23,FALSE
01DJ001,GREAT VILLAGE RIVER NEAR GREAT VILLAGE,NS,7,D,,45.43888855,-63.59806061,93.80000305,FALSE,FALSE,,10,-1,0,0,0,1920,1926,7,FALSE
01DJ003,ECONOMY RIVER NEAR ECONOMY,NS,7,D,,45.41471863,-63.90250015,130,FALSE,FALSE,,10,-1,0,0,0,1923,1927,5,FALSE
01DJ004,FIVE ISLANDS RIVER NEAR BRITISH LAKE,NS,7,D,,45.53556061,-64.01528168,8.81000042,FALSE,FALSE,,10,-1,0,0,0,1978,1979,2,FALSE
01DJ005,GREAT VILLAGE RIVER NEAR SCRABBLE HILL,NS,7,A,D,45.43822098,-63.59799957,89,FALSE,TRUE,647,10,-1,-1,0,0,1993,2017,25,FALSE
01DL001,KELLEY RIVER (MILL CREEK) AT EIGHT MILE FORD,NS,7,A,D,45.58681107,-64.45069122,63.20000076,TRUE,TRUE,647,10,-1,-1,-1,-1,1969,2017,48,FALSE
01DL002,MACCAN RIVER AT EAST SOUTHAMPTON,NS,7,D,,45.59111023,-64.20278168,98.40000153,FALSE,FALSE,,10,-1,0,0,0,1977,1979,3,FALSE
01DN001,RIVER PHILIP AT OXFORD ELECTRIC LIGHT PLANT,NS,7,D,,45.70360947,-63.87611008,370,FALSE,FALSE,,10,-1,0,0,0,1915,1916,2,TRUE
01DN002,RIVER PHILIP NEAR RIVER PHILIP POST OFFICE,NS,7,D,,45.67082977,-63.8966713,228,FALSE,FALSE,,10,-1,0,0,0,1917,1923,7,FALSE
01DN003,WALLACE RIVER AT HOWARD'S MILL,NS,7,D,,45.75138855,-63.56721878,394,FALSE,FALSE,,10,-1,0,0,0,1923,1933,11,FALSE
01DN004,WALLACE RIVER AT WENTWORTH CENTRE,NS,7,D,D,45.67832947,-63.55971909,298,FALSE,FALSE,647,10,-1,0,0,0,1964,1999,36,FALSE
01DN005,WALLACE RIVER AT WENTWORTH,NS,7,D,,45.66416931,-63.55638885,114,FALSE,FALSE,,10,-1,0,0,0,1977,1979,3,FALSE
01DN006,ROARING RIVER AT WESTCHESTER STATION,NS,7,D,,45.61861038,-63.66416931,43,FALSE,FALSE,,10,-1,0,0,0,1977,1979,3,FALSE
01DN007,RIVER PHILIP AT COLLINGWOOD CORNER,NS,7,D,,45.60749817,-63.93360901,105,FALSE,FALSE,,10,-1,0,0,0,1977,1979,3,FALSE
01DN008,WEST RIVER PHILIP AT COLLINGWOOD CORNER,NS,7,D,,45.60667038,-63.93416977,46.90000153,FALSE,FALSE,,10,-1,0,0,0,1977,1979,3,FALSE
01DO001,RIVER JOHN AT WELSFORD,NS,7,D,,45.7283287,-63.05250168,249,FALSE,FALSE,647,10,-1,0,0,0,1965,1995,31,FALSE
01DP001,EAST RIVER (PICTOU) EAST BRANCH AT EUREKA,NS,7,D,,45.5036087,-62.67694092,246,FALSE,FALSE,,10,-1,0,0,0,1915,1915,1,TRUE
01DP002,EAST RIVER (PICTOU) WEST BRANCH AT EUREKA,NS,7,D,,45.49805832,-62.68278122,140,FALSE,FALSE,,10,-1,0,0,0,1915,1916,2,TRUE
01DP003,EAST RIVER AT STELLARTON,NS,7,D,,45.54861069,-62.66194153,404,FALSE,FALSE,,10,-1,0,0,0,1936,1936,1,FALSE
01DP004,MIDDLE RIVER OF PICTOU AT ROCKLIN,NS,7,A,D,45.49739075,-62.78018951,92.19999695,TRUE,TRUE,647,10,-1,-1,-1,-1,1965,2017,53,FALSE
01DQ001,EAST FRENCH RIVER NEAR MERIGOMISH,NS,7,D,,45.60499954,-62.42943954,69.69999695,FALSE,FALSE,,10,-1,0,0,0,1977,1977,1,FALSE
01DR001,SOUTH RIVER AT ST. ANDREWS,NS,7,A,,45.55971909,-61.90364075,177,FALSE,TRUE,647,10,-1,-1,0,0,1917,2018,71,FALSE
01DR002,JAMES RIVER NEAR JAMES RIVER,NS,7,D,,45.58055878,-62.10583115,52.09999847,FALSE,FALSE,,10,-1,0,0,0,1978,1979,2,FALSE
01DR003,RIGHTS RIVER NEAR ANTIGONISH,NS,7,D,,45.64556122,-62.02082825,64.19999695,FALSE,FALSE,647,10,-1,0,0,0,1978,1991,14,FALSE
01EA001,TUSKET RIVER AT TUSKET FALLS,NS,7,D,,43.88138962,-65.97389221,1450,FALSE,FALSE,,10,-1,0,0,0,1915,1929,15,FALSE
01EA002,TUSKET RIVER (WEST BRANCH) AT REYNARD BRIDGE,NS,7,D,,43.92778015,-65.93332672,337,FALSE,FALSE,,10,-1,0,0,0,1920,1929,10,FALSE
01EA003,TUSKET RIVER AT WILSON'S BRIDGE,NS,7,A,,43.9248085,-65.86853027,1070,FALSE,TRUE,647,10,-1,-1,0,0,1929,2018,84,TRUE
01EC001,ROSEWAY RIVER AT LOWER OHIO,NS,7,A,,43.83736038,-65.36911011,495,TRUE,TRUE,647,10,-1,-1,0,0,1915,2018,104,FALSE
01EC002,BLUE HILL BOG BROOK NEAR JORDAN FALLS,NS,7,D,,43.82833099,-65.19471741,22.79999924,FALSE,FALSE,647,10,-1,0,0,0,1988,1995,8,FALSE
01ED001,MERSEY RIVER AT INDIAN GARDENS,NS,7,D,,44.1613884,-65.00861359,1550,FALSE,FALSE,,10,-1,0,0,0,1915,1929,9,TRUE
01ED002,MERSEY RIVER AT LOWER GREAT BROOK FALLS,NS,7,D,,44.09000015,-64.84583282,1940,FALSE,FALSE,,10,-1,0,0,0,1930,1954,25,TRUE
01ED003,MERSEY RIVER AT MILTON,NS,7,D,,44.06666946,-64.76499939,1960,FALSE,FALSE,,10,-1,0,0,0,1954,1979,26,TRUE
01ED005,MERSEY RIVER BELOW GEORGE LAKE,NS,7,A,,44.33314133,-65.20507813,723,TRUE,TRUE,647,10,-1,-1,0,0,1968,2018,46,FALSE
01ED006,KEJIMKUJIK LAKE,NS,7,D,,44.38277817,-65.20639038,,FALSE,FALSE,647,10,0,-1,0,0,1969,1995,27,FALSE
01ED007,MERSEY RIVER BELOW MILL FALLS,NS,7,A,D,44.43677902,-65.22186279,295,TRUE,TRUE,647,10,-1,-1,0,0,1968,2018,51,FALSE
01ED008,BEAVERSKIN BROOK AT BEAVERSKIN LAKE,NS,7,D,,44.30500031,-65.33638763,1.090000033,FALSE,FALSE,,10,-1,0,0,0,1979,1980,2,FALSE
01ED009,ROGERS BROOK NEAR JAKES LANDING,NS,7,D,,44.44610977,-65.21666718,8.739999771,FALSE,FALSE,647,10,-1,0,0,0,1984,1989,6,FALSE
01ED010,ROGERS BROOK NEAR GRAFTON ROAD,NS,7,D,,44.42694092,-65.21527863,1.399999976,FALSE,FALSE,647,10,-1,0,0,0,1991,1996,6,FALSE
01ED011,"ROGERS BROOK NEAR GRAFTON ROAD, SITE  NO.2",NS,7,D,,44.42778015,-65.21333313,0.589999974,FALSE,FALSE,647,10,-1,0,0,0,1992,1996,3,FALSE
01ED013,SHELBURNE RIVER AT POLLARD'S FALLS BRIDGE,NS,7,A,,44.21541977,-65.24141693,268,FALSE,TRUE,647,10,-1,-1,0,0,1999,2018,20,FALSE
01EE001,MEDWAY RIVER AT CHARLESTON,NS,7,D,,44.1733284,-64.66000366,1390,FALSE,FALSE,647,10,-1,0,0,0,1915,1996,82,TRUE
01EE002,MEDWAY RIVER AT HARMONY MILLS,NS,7,D,,44.41333008,-65.05500031,342,FALSE,FALSE,,10,-1,0,0,0,1917,1982,65,TRUE
01EE003,HERRING COVE BROOK NEAR BROOKLYN,NS,7,D,,44.06222153,-64.69277954,59.59999847,FALSE,FALSE,,10,-1,0,0,0,1928,1948,21,TRUE
01EE004,WESTFIELD RIVER NEAR NORTH BROOKFIELD,NS,7,D,,44.40610886,-64.98806,143,FALSE,FALSE,,10,-1,0,0,0,1981,1991,11,FALSE
01EE005,MOOSE PIT BROOK AT TUPPER LAKE,NS,7,A,,44.46183014,-65.0477829,17.70000076,FALSE,TRUE,647,10,-1,-1,0,0,1981,2018,38,FALSE
01EE006,ROUND LAKE BROOK AT ROUND LAKE,NS,7,D,,44.49388885,-64.97360992,56.5,FALSE,FALSE,,10,-1,0,0,0,1981,1989,9,FALSE
01EE007,WHITEBURN BROOK BELOW POLLOCK LAKE,NS,7,D,,44.35277939,-65.09082794,9.489999771,FALSE,FALSE,,10,-1,0,0,0,1984,1989,6,FALSE
01EF001,LAHAVE RIVER AT WEST NORTHFIELD,NS,7,A,,44.4474411,-64.59118652,1250,TRUE,TRUE,647,10,-1,-1,0,0,1915,2018,104,FALSE
01EF003,LA HAVE RIVER ABOVE MORGAN'S FALLS,NS,7,D,,44.53860855,-64.71721649,728,FALSE,FALSE,,10,-1,0,0,0,1915,1979,20,TRUE
01EG001,GOLD RIVER NEAR CHESTER BASIN,NS,7,D,,44.55778122,-64.32749939,373,FALSE,FALSE,,10,-1,0,0,0,1916,1917,2,TRUE
01EG002,GOLD RIVER AT MOSHER'S FALLS,NS,7,D,,44.56444168,-64.35166931,370,TRUE,FALSE,647,10,-1,0,0,0,1965,1996,32,FALSE
01EH001,NORTHEAST RIVER AT ST. MARGARET'S BAY,NS,7,D,,44.70000076,-63.8944397,91.90000153,FALSE,FALSE,,10,-1,0,0,0,1915,1917,3,TRUE
01EH002,INDIAN RIVER AT ST. MARGARET'S BAY,NS,7,D,,44.70333099,-63.90832901,176,FALSE,FALSE,,10,-1,0,0,0,1915,1920,6,TRUE
01EH003,EAST RIVER AT ST. MARGARETS BAY,NS,7,D,,44.68500137,-63.87166977,26.89999962,FALSE,FALSE,647,10,-1,0,0,0,1925,1995,71,FALSE
01EH006,CANAAN RIVER AT OUTLET OF CONNAUGHT LAKE,NS,7,D,,44.64693832,-64.19389343,65.40000153,FALSE,FALSE,647,10,-1,0,0,0,1986,1996,11,FALSE
01EJ001,SACKVILLE RIVER AT BEDFORD,NS,7,A,D,44.73152924,-63.66043854,146,FALSE,TRUE,647,10,-1,-1,-1,-1,1916,2017,49,FALSE
01EJ002,KEARNEY RUN AT MILLVIEW,NS,7,D,,44.71389008,-63.68138885,36,FALSE,FALSE,,10,-1,0,0,0,1970,1973,4,FALSE
01EJ004,LITTLE SACKVILLE RIVER AT MIDDLE SACKVILLE,NS,7,A,D,44.76446915,-63.6875,13.10000038,FALSE,TRUE,647,10,-1,-1,0,0,1980,2016,37,FALSE
01EJ005,MCINTOSH RUN AT HERRING COVE ROAD,NS,7,D,,44.60860825,-63.61693954,15.10000038,FALSE,FALSE,,10,-1,0,0,0,1982,1990,9,TRUE
01EJ006,MCINTOSH RUN AT OLD SAMBRO ROAD,NS,7,D,,44.61333084,-63.62305832,13.89999962,FALSE,FALSE,647,,-1,0,0,0,1990,1994,5,FALSE
01EK001,MUSQUODOBOIT RIVER AT CRAWFORD FALLS,NS,7,D,,44.87166977,-63.22166824,650,FALSE,FALSE,647,10,-1,0,0,0,1915,1995,81,TRUE
01EK002,LITTLE RIVER AT PETPESWICK INLET,NS,7,D,,44.78055954,-63.15666962,52.29999924,FALSE,FALSE,,10,-1,0,0,0,1971,1971,1,FALSE
01EK003,MUSQUODOBOIT RIVER NEAR MIDDLE MUSQUODOBOIT,NS,7,D,,45.04333115,-63.14167023,334,FALSE,FALSE,,10,-1,0,0,0,1974,1983,10,TRUE
01EK004,MUSQUODOBOIT RIVER NEAR UPPER MUSQUODOBOIT,NS,7,D,,45.12472153,-62.96443939,141,FALSE,FALSE,,10,-1,0,0,0,1974,1983,10,TRUE
01EM001,EAST RIVER SHEET HARBOUR AT MALAY FALLS,NS,7,D,,44.9858284,-62.4858284,526,FALSE,FALSE,,10,-1,0,0,0,1915,1923,9,TRUE
01EM002,LITTLE WEST RIVER NEAR SHEET HARBOUR,NS,7,D,,44.9011116,-62.56082916,45.79999924,FALSE,FALSE,,10,-1,0,0,0,1988,1991,4,FALSE
01EN001,LISCOMB RIVER AT LISCOMB FALLS,NS,7,D,,45.03443909,-62.10639191,386,FALSE,FALSE,,10,-1,0,0,0,1916,1918,3,TRUE
01EN002,LISCOMB RIVER AT LISCOMB MILLS,NS,7,D,,45.01499939,-62.09582901,389,FALSE,FALSE,647,10,-1,0,0,0,1962,1996,35,FALSE
01EN003,HALFWAY BROOK NEAR SHEET HARBOUR,NS,7,D,,44.9038887,-62.45444107,16.89999962,FALSE,FALSE,647,10,-1,0,0,0,1988,1995,8,FALSE
01EO001,ST. MARYS RIVER AT STILLWATER,NS,7,A,,45.17438889,-61.97991943,1350,TRUE,TRUE,647,10,-1,-1,0,0,1915,2018,104,FALSE
01EO002,ARCHIBALD BROOK AT STILLWATER,NS,7,D,,45.17583084,-61.97583008,49.20000076,FALSE,FALSE,,10,-1,0,0,0,1915,1926,12,FALSE
01EO003,EAST RIVER ST. MARYS AT NEWTOWN,NS,7,D,,45.36000061,-62.13555908,282,FALSE,FALSE,,10,-1,0,0,0,1965,1979,15,FALSE
01ER001,CLAM HARBOUR RIVER NEAR BIRCHTOWN,NS,7,D,,45.46833038,-61.45999908,45.09999847,FALSE,FALSE,647,10,-1,0,0,0,1957,1995,39,FALSE
01ER002,ST. FRANCIS RIVER AT GOOSE HARBOUR LAKE,NS,7,D,,45.53416824,-61.41667175,23.79999924,FALSE,FALSE,,10,-1,0,0,0,1958,1960,3,FALSE
01FA001,RIVER INHABITANTS AT GLENORA,NS,7,A,,45.72024918,-61.28610992,193,TRUE,TRUE,647,10,-1,-1,0,0,1965,2018,54,FALSE
01FA002,LITTLE RIVER NEAR PORT RICHMOND,NS,7,D,,45.6033287,-61.25944138,41.40000153,FALSE,FALSE,,10,-1,0,0,0,1967,1968,2,TRUE
01FA003,NORTH LITTLE RIVER BELOW BEAVER DAM LAKE,NS,7,D,,45.63056183,-61.28472137,26.70000076,FALSE,FALSE,,10,-1,0,0,0,1969,1988,20,TRUE
01FB001,NORTHEAST MARGAREE RIVER AT MARGAREE VALLEY,NS,7,A,,46.36896896,-60.97528076,368,TRUE,TRUE,647,10,-1,-1,0,0,1916,2018,103,FALSE
01FB003,SOUTHWEST MARGAREE RIVER NEAR UPPER MARGAREE,NS,7,A,,46.2231102,-61.13692093,357,TRUE,TRUE,647,10,-1,-1,0,0,1918,2018,101,FALSE
01FB004,SOUTHWEST MARGAREE RIVER AT SCOTSVILLE,NS,7,D,,46.18806076,-61.15943909,311,FALSE,FALSE,,10,-1,0,0,0,1927,1928,2,FALSE
01FB005,APRIL BROOK AT GILLISDALE,NS,7,D,D,46.23139191,-61.14167023,6.21999979,FALSE,FALSE,,10,-1,0,-1,-1,1966,1979,14,FALSE
01FB006,LAKE O'LAW BROOK AT EGYPT ROAD,NS,7,D,,46.31472015,-60.97306061,37.79999924,FALSE,FALSE,647,10,-1,0,0,0,1978,1995,18,FALSE
01FC001,CHETICAMP RIVER BELOW CHETICAMP LAKE,NS,7,D,,46.6511116,-60.66305923,49.20000076,FALSE,FALSE,,10,-1,0,0,0,1958,1977,20,FALSE
01FC002,CHETICAMP RIVER ABOVE ROBERT BROOK,NS,7,A,,46.64157867,-60.94610977,190,FALSE,TRUE,647,10,-1,-1,0,0,1958,2018,60,TRUE
01FC003,CHETICAMP RIVER BELOW ARTEMISE BROOK,NS,7,D,,46.61722183,-60.73416901,37,FALSE,FALSE,647,10,-1,0,0,0,1978,2000,22,TRUE
01FD001,WRECK COVE BROOK NEAR WRECK COVE,NS,7,D,,46.52305984,-60.42221832,31,FALSE,FALSE,,35,-1,0,0,0,1956,1977,22,FALSE
01FE001,INDIAN BROOK NEAR MATHESON'S LAKE,NS,7,D,,46.49861145,-60.57917023,82.40000153,FALSE,FALSE,,10,-1,0,0,0,1960,1977,18,FALSE
01FE002,INDIAN BROOK AT INDIAN BROOK,NS,7,A,,46.37171936,-60.53369141,125,FALSE,TRUE,647,10,-1,-1,0,0,1960,2015,56,TRUE
01FF001,MIDDLE RIVER AT MACLENNANS CROSS,NS,7,A,,46.18999863,-60.94181061,123,FALSE,TRUE,647,10,-1,-1,0,0,2004,2018,15,FALSE
01FG001,RIVER DENYS AT BIG MARSH,NS,7,A,,45.8936882,-61.20475006,14,FALSE,TRUE,647,10,-1,-1,0,0,2006,2018,13,FALSE
01FH001,GRAND RIVER AT LOCH LOMOND,NS,7,D,,45.72999954,-60.6033287,120,FALSE,FALSE,647,10,-1,0,0,0,1920,1995,76,FALSE
01FJ001,SALMON RIVER AT SALMON RIVER BRIDGE,NS,7,D,D,45.93416977,-60.30278015,199,FALSE,FALSE,647,10,-1,0,-1,-1,1965,1995,31,FALSE
01FJ002,MACASKILLS BROOK NEAR BIRCH GROVE,NS,7,A,,46.1178894,-60.00466919,17.20000076,FALSE,TRUE,647,10,-1,-1,0,0,1978,2017,40,FALSE
01FJ004,NORTHWEST BROOK BELOW GRAND LAKE,NS,7,D,,46.16860962,-60.11888885,20.89999962,FALSE,FALSE,,10,-1,0,0,0,1987,1988,2,FALSE
01FJ006,FIFES BROOK NEAR MILL POND,NS,7,D,,46.30083084,-60.36582947,34.29999924,FALSE,FALSE,647,10,-1,0,0,0,1988,1992,5,FALSE
02AA001,PIGEON RIVER AT MIDDLE FALLS,MN,5,D,D,48.01221848,-89.61611176,1550,TRUE,FALSE,600,10,-1,0,0,0,1921,1999,79,FALSE
02AA002,PINE RIVER NEAR CROOKS,ON,5,D,,48.07221985,-89.53333282,389,FALSE,FALSE,,10,-1,0,0,0,1972,1978,7,FALSE
02AB001,KAMINISTIQUIA RIVER NEAR DONA,ON,5,D,,48.55556107,-89.58860779,3630,FALSE,FALSE,,,-1,0,0,0,1921,1956,36,TRUE
02AB002,SHEBANDOWAN RIVER NEAR KAMINISTIQUIA,ON,5,D,,48.54582977,-89.62361145,2850,FALSE,FALSE,,,-1,0,0,0,1920,1923,4,TRUE
02AB003,KAMINISTIQUIA RIVER AT MOKOMON,ON,5,D,,48.4916687,-89.59999847,6790,FALSE,FALSE,,35,0,-1,0,0,1922,1924,3,TRUE
02AB004,KAMINISTIQUIA RIVER AT OUTLET OF DOG LAKE,ON,5,D,,48.70832825,-89.6333313,3760,FALSE,FALSE,485,,-1,0,0,0,1923,1994,72,TRUE
02AB005,SHEBANDOWAN RIVER AT GLENWATER,ON,5,D,,48.54333115,-89.78333282,2560,FALSE,FALSE,,,-1,0,0,0,1923,1957,35,TRUE
02AB006,KAMINISTIQUIA RIVER AT KAMINISTIQUIA,ON,5,A,D,48.53231049,-89.59500122,6470,FALSE,TRUE,647,35,-1,-1,0,0,1926,2017,92,TRUE
02AB007,KAMINISTIQUIA RIVER AT STANLEY,ON,5,D,,48.36806107,-89.5652771,7740,FALSE,FALSE,,,-1,0,0,0,1927,1931,5,TRUE
02AB008,NEEBING RIVER NEAR THUNDER BAY,ON,5,A,D,48.38338852,-89.3065567,187,TRUE,TRUE,647,35,-1,-1,0,0,1953,2017,65,FALSE
02AB009,SHEBANDOWAN RIVER AT SUNSHINE,ON,5,D,,48.55556107,-89.68193817,2800,FALSE,FALSE,647,10,-1,0,0,0,1957,1994,38,TRUE
02AB010,KAMINISTIQUIA RIVER AT KAKABEKA FALLS POWERHOUSE,ON,5,D,,48.41556168,-89.63082886,6710,FALSE,FALSE,485,,-1,0,0,0,1923,1994,72,TRUE
02AB011,SHEBANDOWAN RIVER AT OUTLET OF SHEBANDOWAN LAKE,ON,5,D,,48.61972046,-90.0616684,,FALSE,FALSE,485,,-1,0,0,0,1924,1994,71,TRUE
02AB012,GREENWATER CREEK AT OUTLET OF GREENWATER LAKE,ON,5,D,,48.60778046,-90.45583344,174,FALSE,FALSE,485,10,-1,0,0,0,1945,1994,49,TRUE
02AB013,KASHABOWIE RIVER AT OUTLET OF KASHABOWIE LAKE,ON,5,D,,48.65694046,-90.41750336,526,FALSE,FALSE,485,,-1,0,0,0,1951,1994,44,TRUE
02AB014,NORTH CURRENT RIVER NEAR THUNDER BAY,ON,5,A,,48.51956177,-89.17503357,105,FALSE,TRUE,647,10,-1,-1,0,0,1972,2017,38,FALSE
02AB015,CURRENT RIVER NEAR STEPSTONE,ON,5,D,,48.53610992,-89.23610687,492,FALSE,FALSE,,10,-1,0,0,0,1972,1986,15,TRUE
02AB016,MCINTYRE RIVER AT THUNDER BAY,ON,5,D,,48.41860962,-89.26528168,145,FALSE,FALSE,,10,-1,0,0,0,1972,1986,15,TRUE
02AB017,WHITEFISH RIVER AT NOLALU,ON,5,A,D,48.29211044,-89.80986023,226,FALSE,TRUE,647,35,-1,-1,0,0,1980,2017,38,FALSE
02AB018,LAKE SUPERIOR AT THUNDER BAY,ON,5,A,,48.40967178,-89.21730804,,FALSE,FALSE,218,46,0,-1,0,0,1907,2018,112,FALSE
02AB019,MCVICAR CREEK AT THUNDER BAY,ON,5,A,,48.44919968,-89.21861267,45.59999847,FALSE,TRUE,647,10,-1,-1,0,0,1985,2018,34,FALSE
02AB020,MCINTYRE RIVER ABOVE THUNDER BAY,ON,5,A,D,48.4826889,-89.32463837,83.09999847,FALSE,TRUE,647,10,-1,-1,0,0,1987,2018,32,TRUE
02AB021,CURRENT RIVER AT STEPSTONE,ON,5,A,D,48.56243896,-89.24066925,407,FALSE,TRUE,647,10,-1,-1,0,0,1989,2017,29,FALSE
02AB022,CORBETT CREEK NEAR MURILLO,ON,5,A,,48.42861938,-89.54563141,42.59999847,FALSE,TRUE,647,10,-1,-1,0,0,2003,2017,15,FALSE
02AB023,SLATE RIVER NEAR THUNDER BAY,ON,5,A,,48.32575989,-89.40421295,181,FALSE,TRUE,647,10,-1,-1,0,0,2007,2015,9,FALSE
02AB024,NEEBING RIVER NEAR INTOLA,ON,5,A,,48.44281006,-89.35775757,54.20000076,FALSE,TRUE,647,10,-1,-1,0,0,2007,2017,11,FALSE
02AB025,KAMINISTIQUIA RIVER AT WEST FORT WILLIAM,ON,5,A,,48.34785843,-89.35327911,7740,FALSE,TRUE,647,128,-1,-1,0,0,2007,2012,6,TRUE
02AB026,KAMINISTIQUIA RIVER ABOVE WEST FORT WILLIAM,ON,5,A,,48.3461113,-89.38619232,8100,FALSE,TRUE,647,10,0,-1,0,0,2007,2017,11,FALSE
02AC001,WOLF RIVER AT HIGHWAY NO. 17,ON,5,A,D,48.82168961,-88.53460693,726,FALSE,TRUE,647,35,-1,-1,0,0,1971,2017,46,FALSE
02AC002,BLACK STURGEON RIVER AT HIGHWAY NO. 17,ON,5,A,D,48.90422058,-88.37686157,2980,FALSE,TRUE,647,10,-1,-1,0,0,1971,2017,47,FALSE
02AD002,NIPIGON RIVER NEAR CAMERON FALLS,ON,5,D,,49.15000153,-88.33332825,23600,FALSE,FALSE,477,,-1,0,0,0,1922,1926,5,TRUE
02AD003,LAKE NIPIGON AT ORIENT BAY,ON,5,D,,49.36943817,-88.1444397,,FALSE,FALSE,477,35,0,-1,0,0,1920,1932,13,TRUE
02AD006,NIPIGON RIVER BELOW VIRGIN FALLS,ON,5,D,,49.41667175,-88.21666718,24500,FALSE,FALSE,477,,-1,0,0,0,1926,1950,25,TRUE
02AD007,LAKE NIPIGON AT MACDIARMID,ON,5,D,,49.4338913,-88.13194275,,FALSE,FALSE,485,35,0,-1,0,0,1927,1994,68,TRUE
02AD008,NIPIGON RIVER AT PINE PORTAGE,ON,5,D,,49.30778122,-88.31111145,24600,FALSE,FALSE,485,10,-1,0,0,0,1950,1994,45,TRUE
02AD009,OGOKI RIVER DIVERSION TO LAKE NIPIGON,ON,5,D,,50.63750076,-88.20832825,,FALSE,FALSE,485,10,-1,0,0,0,1943,1994,52,TRUE
02AD010,BLACKWATER RIVER AT BEARDMORE,ON,5,A,,49.59761047,-87.96543884,652,FALSE,TRUE,647,35,-1,-1,0,0,1971,2018,48,FALSE
02AD011,NAMEWAMINIKAN RIVER AT LONG RAPIDS,ON,5,D,,49.76388931,-87.76805878,2190,FALSE,FALSE,,10,-1,0,0,0,1987,1987,1,FALSE
02AD012,NIPIGON RIVER BELOW ALEXANDER GENERATING STATION,ON,5,A,,49.12269974,-88.35787201,24700,FALSE,TRUE,647,10,-1,-1,0,0,2007,2018,12,TRUE
02AE001,GRAVEL RIVER NEAR CAVERS,ON,5,A,D,48.92599869,-87.69019318,608,FALSE,TRUE,647,10,-1,-1,0,0,1974,2017,33,FALSE
02BA002,STEEL RIVER NEAR TERRACE BAY,ON,5,D,D,48.77777863,-86.88443756,1190,FALSE,FALSE,647,10,-1,0,0,0,1970,1994,25,FALSE
02BA003,LITTLE PIC RIVER NEAR COLDWELL,ON,5,A,D,48.84910965,-86.60722351,1320,FALSE,TRUE,647,10,-1,-1,0,0,1972,2017,46,FALSE
02BA004,LAKE SUPERIOR AT ROSSPORT,ON,5,A,,48.83372116,-87.51956177,,FALSE,FALSE,218,46,0,-1,0,0,1967,2018,52,FALSE
02BA005,WHITESAND RIVER ABOVE SCHREIBER AT MINOVA MINE,ON,5,A,D,48.97811127,-87.37677765,10.80000019,FALSE,TRUE,647,10,-1,-1,0,0,1989,2017,29,FALSE
02BA006,STEEL RIVER BELOW SANTOY LAKE,ON,5,A,A,48.81370926,-86.85933685,1190,FALSE,TRUE,647,10,-1,-1,0,0,2003,2018,16,FALSE
02BB002,BLACK RIVER NEAR MARATHON,ON,5,D,D,48.68888855,-86.21250153,1980,FALSE,FALSE,647,10,-1,-1,0,0,1967,1992,24,FALSE
02BB003,PIC RIVER NEAR MARATHON,ON,5,A,D,48.77407837,-86.29660797,4220,FALSE,TRUE,647,10,-1,-1,0,0,1970,2018,49,FALSE
02BB004,CEDAR CREEK NEAR HEMLO,ON,5,A,,48.70542145,-85.90794373,210,FALSE,TRUE,647,10,-1,-1,0,0,1984,2018,35,TRUE
02BC002,WHITE RIVER AT BERTRAND,ON,5,D,,48.66667175,-85.69999695,2400,FALSE,FALSE,,,-1,0,0,0,1953,1960,8,TRUE
02BC003,WHITE RIVER AT REGAN,ON,5,D,,48.70000076,-85.6333313,,FALSE,FALSE,,10,-1,-1,0,0,1943,1955,7,TRUE
02BC004,WHITE RIVER BELOW WHITE LAKE,ON,5,D,D,48.65480042,-85.74153137,4160,FALSE,FALSE,647,10,-1,-1,0,0,1959,2015,57,TRUE
02BC005,PUKASKWA RIVER AT PUKASKWA NATIONAL PARK,ON,5,D,D,48.06092072,-85.80335999,533,FALSE,FALSE,647,10,-1,-1,0,0,1990,2006,13,FALSE
02BC006,PUKASKWA RIVER BELOW FOX RIVER,ON,5,A,,48.16038895,-85.73091888,407,FALSE,TRUE,647,10,-1,-1,0,0,2006,2017,12,FALSE
02BC007,WHITE LAKE AT WHITE LAKE PROVINCIAL PARK,ON,5,A,,48.69289017,-85.64214325,,FALSE,TRUE,647,10,0,-1,0,0,2007,2018,12,TRUE
02BC008,WHITE RIVER ABOVE OSKABUKUTA RIVER,ON,5,A,,48.58782959,-85.89128113,4210,FALSE,TRUE,647,10,0,-1,0,0,2017,2017,1,TRUE
02BD001,MAGPIE RIVER AT STEEP HILL FALLS,ON,5,D,,48.06777954,-84.74056244,1640,FALSE,FALSE,,10,-1,0,0,0,1920,1939,20,TRUE
02BD002,MICHIPICOTEN RIVER AT SCOTT FALLS,ON,5,A,,47.91083145,-84.74333191,5310,FALSE,FALSE,295,10,-1,0,0,0,1920,2017,98,TRUE
02BD003,MAGPIE RIVER NEAR MICHIPICOTEN,ON,5,D,D,47.93888855,-84.83055878,1930,FALSE,FALSE,,10,-1,0,0,0,1939,1990,52,FALSE
02BD004,LAKE SUPERIOR AT MICHIPICOTEN HARBOUR,ON,5,A,,47.961689,-84.89827728,,FALSE,FALSE,218,46,0,-1,0,0,1915,2018,104,FALSE
02BD005,MAGPIE RIVER AT ESNAGI LAKE,ON,5,A,,48.48043823,-84.53269196,702,FALSE,TRUE,647,35,0,-1,0,0,1989,2018,30,TRUE
02BD006,WAWA CREEK AT WAWA,ON,5,A,,47.98939133,-84.76811218,31.39999962,FALSE,TRUE,647,10,-1,-1,0,0,1990,2017,12,TRUE
02BD007,MAGPIE RIVER NEAR WAWA,ON,5,D,,48.02202988,-84.81317139,1950,FALSE,FALSE,647,10,-1,-1,0,0,2002,2017,16,TRUE
02BE001,MONTREAL RIVER AT ALGOMA CENTRAL AND HUDSON BAY RAILWAY,ON,5,D,,47.27500153,-84.43332672,2850,FALSE,FALSE,,,-1,0,0,0,1915,1935,15,FALSE
02BE002,MONTREAL RIVER NEAR MONTREAL RIVER HARBOUR,ON,5,A,,47.21389008,-84.61943817,2880,FALSE,FALSE,295,10,-1,0,0,0,1935,2017,83,TRUE
02BF001,BATCHAWANA RIVER NEAR BATCHAWANA,ON,5,A,D,47.00352859,-84.51555634,1230,FALSE,TRUE,647,10,-1,-1,0,0,1967,2017,51,FALSE
02BF002,GOULAIS RIVER NEAR SEARCHMONT,ON,5,A,D,46.86093903,-83.97180939,1140,TRUE,TRUE,647,10,-1,-1,0,0,1967,2017,51,FALSE
02BF003,BENNET CREEK AT SAULT STE. MARIE,ON,5,D,,46.53139114,-84.39749908,18.60000038,FALSE,FALSE,,,-1,0,0,0,1971,1978,8,FALSE
02BF004,BIG CARP RIVER NEAR SAULT STE. MARIE,ON,5,A,D,46.51588821,-84.46517944,51,FALSE,TRUE,647,10,-1,-1,0,0,1979,2017,39,FALSE
02BF005,NORBERG CREEK (SITE A) ABOVE BATCHAWANA RIVER,ON,5,A,,47.06253052,-84.43071747,10.39999962,FALSE,TRUE,647,10,-1,-1,0,0,1980,2016,37,FALSE
02BF006,NORBERG CREEK (SITE B) AT OUTLET OF TURKEY LAKE,ON,5,A,,47.05052948,-84.41278076,8.029999733,FALSE,FALSE,647,10,-1,-1,0,0,1979,2016,38,FALSE
02BF007,NORBERG CREEK (SITE C) AT OUTLET OF LITTLE TURKEY LAKE,ON,5,A,,47.0447197,-84.4102478,5.050000191,FALSE,FALSE,647,10,-1,-1,0,0,1981,2016,36,FALSE
02BF008,NORBERG CREEK (SITE D) BELOW WISHART LAKE,ON,5,A,,47.04624939,-84.40319061,4.079999924,FALSE,FALSE,647,10,-1,-1,0,0,1980,2016,37,FALSE
02BF009,NORBERG CREEK (SITE E) BELOW BATCHAWANA LAKE,ON,5,A,,47.05778122,-84.40000153,2.039999962,FALSE,FALSE,647,10,-1,-1,0,0,1981,2016,36,FALSE
02BF010,LAKE SUPERIOR AT GROS CAP,ON,5,A,,46.52914047,-84.58628082,,FALSE,FALSE,218,46,0,-1,0,0,1926,2018,61,FALSE
02BF011,ST. MARYS RIVER AT SAULT STE. MARIE (ABOVE),ON,5,A,,46.51247025,-84.36733246,,FALSE,FALSE,218,46,0,-1,0,0,1908,2018,111,TRUE
02BF012,NORBERG CREEK (SITE F) AT OUTLET OF BATCHAWANA LAKE,ON,5,A,,47.06280899,-84.39253235,1.149999976,FALSE,FALSE,647,10,-1,-1,0,0,1982,2016,35,FALSE
02BF013,TRIBUTARY TO NORBERG CREEK AT TURKEY LAKE,ON,5,A,,47.04167175,-84.41680908,0.07,FALSE,FALSE,647,10,-1,-1,0,0,1989,2016,28,FALSE
02BF014,GOULAIS RIVER NEAR KIRBY'S CORNER,ON,5,A,,46.71738815,-84.28478241,1830,FALSE,TRUE,647,10,-1,-1,0,0,2007,2017,11,TRUE
02CA001,ST. MARYS RIVER AT SAULT STE. MARIE,ON,5,D,,46.50944138,-84.36167145,210000,FALSE,FALSE,335,45,-1,0,0,0,1860,1993,133,TRUE
02CA002,ROOT RIVER AT SAULT STE. MARIE,ON,5,A,D,46.56285858,-84.2816925,109,FALSE,TRUE,647,10,-1,-1,0,0,1971,2017,47,FALSE
02CA003,ST. MARYS RIVER NEAR GARDEN RIVER,ON,5,A,,46.53258133,-84.13124847,,FALSE,TRUE,647,10,0,-1,0,0,1973,2018,46,TRUE
02CA004,ST. MARYS RIVER ABOVE CLARK CREEK,ON,5,D,,46.49610901,-84.28417206,,FALSE,FALSE,,10,0,-1,0,0,1975,1978,2,TRUE
02CA005,ST. MARYS RIVER AT SAULT STE. MARIE (BELOW),ON,5,A,,46.51128006,-84.34322357,,FALSE,FALSE,218,46,0,-1,0,0,1908,2018,111,TRUE
02CA006,LAKE HURON AT THESSALON,ON,5,A,,46.25400162,-83.55106354,,FALSE,FALSE,218,46,0,-1,0,0,1926,2018,93,FALSE
02CA007,THESSALON RIVER NEAR POPLAR DALE,ON,5,A,,46.5304718,-83.70960999,272,FALSE,TRUE,647,10,-1,-1,0,0,2007,2017,11,TRUE
02CB001,MISSISSAGI RIVER BELOW AUBREY FALLS,ON,5,D,,46.91167068,-83.21056366,4040,FALSE,FALSE,485,10,-1,0,0,0,1946,1994,45,TRUE
02CB002,MISSISSAGI RIVER AT ROCKY ISLAND LAKE,ON,5,D,,46.8666687,-83.15528107,2150,FALSE,FALSE,485,35,-1,-1,0,0,1950,1994,20,TRUE
02CB003,AUBINADONG RIVER ABOVE SESABIC CREEK,ON,5,A,,46.96841812,-83.41686249,1450,FALSE,TRUE,647,10,-1,-1,0,0,1980,2017,38,FALSE
02CC002,MISSISSAGI RIVER AT IRON BRIDGE,ON,5,D,,46.27917099,-83.22360992,9040,FALSE,FALSE,477,,-1,0,0,0,1915,1919,5,FALSE
02CC003,MISSISSAGI RIVER BELOW IRON BRIDGE,ON,5,D,,46.25416946,-83.1847229,9250,FALSE,FALSE,477,,-1,0,0,0,1919,1920,2,TRUE
02CC004,MISSISSAGI RIVER AT MISSISSAGI,ON,5,D,,46.24443817,-83.15556335,9270,FALSE,FALSE,,,-1,0,0,0,1920,1950,31,TRUE
02CC005,LITTLE WHITE RIVER NEAR BELLINGHAM,ON,5,A,,46.39395142,-83.28298187,1970,FALSE,TRUE,647,10,-1,-1,0,0,1942,2017,76,TRUE
02CC006,MISSISSAGI RIVER NEAR WHARNCLIFFE,ON,5,D,,46.41389084,-83.39305878,7100,FALSE,FALSE,,,-1,0,0,0,1947,1950,4,TRUE
02CC007,MISSISSAGI RIVER AT RAYNER GENERATING STATION,ON,5,D,,46.43527985,-83.38471985,6840,FALSE,FALSE,485,,-1,0,0,0,1950,1994,45,TRUE
02CC008,MISSISSAGI RIVER AT MISSISSAGI CHUTE,ON,5,A,D,46.2013588,-83.02539063,9260,FALSE,FALSE,647,10,-1,-1,0,0,1940,2011,62,TRUE
02CC009,MISSISSAGI RIVER AT RED ROCK FALLS,ON,5,D,,46.31583023,-83.29083252,9010,FALSE,FALSE,485,10,-1,0,0,0,1960,1994,35,TRUE
02CC010,LITTLE WHITE RIVER BELOW BOLAND RIVER,ON,5,A,,46.58113861,-82.96800232,1210,FALSE,TRUE,647,10,-1,-1,0,0,1980,2017,38,TRUE
02CD001,SERPENT RIVER AT HIGHWAY NO. 17,ON,5,A,D,46.2107811,-82.51242065,1350,FALSE,TRUE,647,10,-1,-1,0,0,1966,2018,53,TRUE
02CD002,SERPENT RIVER AT OUTLET OF DUNLOP LAKE,ON,5,D,,46.48139191,-82.64806366,109,FALSE,FALSE,647,10,-1,0,0,0,1977,1993,17,TRUE
02CD003,SERPENT RIVER BELOW QUIRKE LAKE,ON,5,D,,46.48638916,-82.48110962,319,FALSE,FALSE,647,10,-1,0,0,0,1977,1993,17,TRUE
02CD004,SERPENT RIVER BELOW PECORS LAKE,ON,5,D,,46.37443924,-82.4383316,567,FALSE,FALSE,647,10,-1,0,0,0,1967,1994,26,TRUE
02CD005,ROCHESTER CREEK ABOVE QUIRKE LAKE,ON,5,D,,46.5,-82.52111053,99.5,FALSE,FALSE,,10,-1,0,0,0,1977,1985,9,FALSE
02CD006,SERPENT RIVER ABOVE QUIRKE LAKE,ON,5,A,,46.51158142,-82.60028076,157,FALSE,TRUE,647,10,-1,-1,0,0,1967,2017,51,FALSE
02CD007,LITTLE NORDIC CREEK AT ELLIOT LAKE,ON,5,D,,46.3533287,-82.64360809,4.579999924,FALSE,FALSE,,10,-1,0,0,0,1982,1989,8,FALSE
02CD008,NORDIC MINE TAILINGS DITCH (SITE 1) NEAR ELLIOT LAKE,ON,5,D,,46.38750076,-82.58249664,2.089999914,FALSE,FALSE,,10,-1,0,0,0,1984,1985,2,FALSE
02CD009,NORDIC MINE TAILINGS DITCH (SITE 2) NEAR ELLIOT LAKE,ON,5,D,,46.38694,-82.57193756,2.75999999,FALSE,FALSE,,10,-1,0,0,0,1984,1985,2,FALSE
02CD010,NORDIC MINE TAILINGS DITCH (SITE 3) NEAR ELLIOT LAKE,ON,5,D,,46.38193893,-82.57943726,3.00999999,FALSE,FALSE,,10,-1,0,0,0,1984,1984,1,FALSE
02CE001,SPANISH RIVER AT ESPANOLA,ON,5,D,,46.26805878,-81.7722168,11400,FALSE,FALSE,270,10,-1,0,0,0,1915,1994,50,TRUE
02CE002,AUX SABLES RIVER AT MASSEY,ON,5,A,D,46.21493912,-82.07080841,1340,FALSE,TRUE,647,10,-1,-1,0,0,1915,2017,103,TRUE
02CE003,SPANISH RIVER AT WEBBWOOD,ON,5,D,,46.26388931,-81.87361145,,FALSE,FALSE,477,,-1,0,0,0,1916,1920,5,TRUE
02CE004,SPANISH RIVER AT HIGH FALLS,ON,5,D,,46.38056183,-81.56861115,6800,FALSE,FALSE,340,10,-1,0,0,0,1920,1993,74,TRUE
02CE007,MINISTIC CREEK ABOVE AGNEW LAKE,ON,5,A,,46.42956924,-81.60032654,40.59999847,FALSE,TRUE,647,10,-1,-1,0,0,2006,2017,12,FALSE
02CE103,MINISTIC CREEK NEAR AGNEW LAKE MINE,ON,5,D,,46.40832901,-81.57778168,41.20000076,FALSE,FALSE,485,,-1,0,0,0,1978,1979,2,FALSE
02CF001,VERMILION RIVER NEAR WHITEFISH,ON,5,D,,46.3944397,-81.28193665,3600,FALSE,FALSE,477,10,-1,-1,0,0,1915,1920,6,TRUE
02CF002,VERMILION RIVER BELOW KUSK LAKE,ON,5,D,,46.33332825,-81.34999847,4070,FALSE,FALSE,,,-1,0,0,0,1919,1933,15,TRUE
02CF004,VERMILION RIVER AT LORNE FALLS,ON,5,D,,46.31528091,-81.52166748,4190,FALSE,FALSE,340,10,-1,0,0,0,1918,1993,76,TRUE
02CF005,JUNCTION CREEK AT SUDBURY,ON,5,A,,46.47872162,-81.01042175,87,FALSE,TRUE,647,10,-1,-1,0,0,1958,2018,51,TRUE
02CF007,WHITSON RIVER AT CHELMSFORD,ON,5,A,,46.58335876,-81.19911194,277,FALSE,TRUE,647,10,-1,-1,0,0,1960,2017,58,FALSE
02CF008,WHITSON RIVER AT VAL CARON,ON,5,A,,46.61016846,-81.03296661,179,TRUE,TRUE,647,10,-1,-1,0,0,1960,2017,58,FALSE
02CF009,NOLIN CREEK AT SUDBURY,ON,5,D,D,46.49750137,-81.00694275,21.5,FALSE,FALSE,647,10,-1,0,0,0,1959,1994,36,TRUE
02CF010,ONAPING RIVER NEAR LEVACK,ON,5,A,,46.59949875,-81.38197327,1650,FALSE,TRUE,647,10,-1,-1,0,0,1976,2018,40,TRUE
02CF011,VERMILION RIVER NEAR VAL CARON,ON,5,A,D,46.68544006,-81.00924683,680,FALSE,TRUE,647,10,-1,-1,0,0,1970,2017,38,FALSE
02CF012,JUNCTION CREEK BELOW KELLEY LAKE,ON,5,A,,46.42731094,-81.09844208,199,FALSE,TRUE,647,10,-1,-1,0,0,1977,2018,42,FALSE
02CF013,MOOSE CREEK AT LEVACK,ON,5,A,,46.63594055,-81.39147186,40.59999847,FALSE,TRUE,647,10,-1,-1,0,0,1981,2017,37,TRUE
02CF014,VERMILION RIVER NEAR MILNET,ON,5,A,,46.81943893,-80.95713806,541,FALSE,TRUE,647,10,-1,-1,0,0,2005,2017,13,FALSE
02CF100,VERMILION RIVER NEAR CAPREOL,ON,5,D,,46.71500015,-80.95027924,635,FALSE,FALSE,485,10,-1,0,0,0,1970,1977,8,FALSE
02CG001,KAGAWONG RIVER AT KAGAWONG,ON,5,D,,45.90000153,-82.26667023,243,FALSE,FALSE,477,,-1,0,0,0,1915,1917,3,TRUE
02CG002,LAKE HURON AT LITTLE CURRENT,ON,5,A,,45.98052979,-81.92436218,,FALSE,FALSE,218,46,0,-1,0,0,1959,2018,60,FALSE
02CG003,BLUE JAY CREEK NEAR TEHKUMMAH,ON,5,A,,45.65169144,-81.98661041,17.89999962,FALSE,TRUE,647,10,-1,-1,0,0,1985,2018,28,FALSE
02CG004,GRIMSTHORPE CREEK NEAR GRIMSTHORPE,ON,5,D,,45.69390106,-82.33470154,63.09999847,FALSE,FALSE,647,10,-1,-1,0,0,2006,2013,8,FALSE
02CG005,MINDEMOYA LAKE AT MINDEMOYA,ON,5,A,,45.74988937,-82.18489075,157,FALSE,TRUE,647,10,0,-1,0,0,2007,2018,12,TRUE
02CH001,FROOD LAKE NEAR WHITEFISH FALLS,ON,5,A,,46.11861038,-81.72839355,930,FALSE,TRUE,647,10,0,-1,0,0,2005,2018,14,TRUE
02CH002,PANACHE LAKE AT JACKSON'S POINT,ON,5,A,,46.27357864,-81.3445816,624,FALSE,TRUE,647,10,0,-1,0,0,2005,2018,14,TRUE
02DA001,WANAPITEI RIVER AT OUTLET OF WANAPITEI LAKE,ON,5,D,,46.66416931,-80.67333221,2540,FALSE,FALSE,,,-1,0,0,0,1939,1957,19,TRUE
02DA002,WANAPITEI LAKE AT BOWLANDS BAY,ON,5,D,,46.65610886,-80.76750183,,FALSE,FALSE,485,35,0,-1,0,0,1953,1992,40,TRUE
02DB001,WANAPITEI RIVER NEAR WANAPITEI,ON,5,D,,46.52222061,-80.7097168,2770,FALSE,FALSE,477,,-1,0,0,0,1915,1916,2,FALSE
02DB002,WANAPITEI RIVER AT MCVITTIES,ON,5,D,,46.31666946,-80.83750153,3240,FALSE,FALSE,477,,-1,0,0,0,1916,1923,7,TRUE
02DB003,WANAPITEI RIVER NEAR CONISTON,ON,5,D,,46.47222137,-80.81944275,2820,FALSE,FALSE,,,-1,0,0,0,1922,1952,31,TRUE
02DB004,CONISTON CREEK NEAR CONISTON,ON,5,D,,46.47917175,-80.81944275,64.80000305,FALSE,FALSE,,,-1,0,0,0,1942,1956,15,FALSE
02DB005,WANAPITEI RIVER NEAR WANUP,ON,5,A,D,46.34566879,-80.83956146,3150,FALSE,TRUE,647,10,-1,-1,0,0,1952,2018,67,TRUE
02DB006,WANAPETEI RIVER NEAR STINSON,ON,5,D,,46.52082825,-80.71138763,2750,FALSE,FALSE,485,10,-1,0,0,0,1974,1980,7,TRUE
02DB007,CONISTON CREEK ABOVE WANAPITEI RIVER,ON,5,A,,46.47528076,-80.8215332,59,FALSE,TRUE,647,10,-1,-1,0,0,1980,2018,39,FALSE
02DC001,STURGEON RIVER AT SMOKY FALLS,ON,5,D,,46.45000076,-79.8666687,6660,FALSE,FALSE,477,,-1,0,0,0,1914,1920,7,TRUE
02DC002,STURGEON RIVER BELOW SMOKY FALLS,ON,5,D,,46.45000076,-79.8666687,6660,FALSE,FALSE,,,-1,0,0,0,1920,1921,2,TRUE
02DC003,STURGEON RIVER AT CRYSTAL FALLS,ON,5,D,,46.45000076,-79.86306,6660,FALSE,FALSE,485,10,-1,0,0,0,1921,1994,74,TRUE
02DC004,STURGEON RIVER NEAR GLEN AFTON,ON,5,A,,46.63716888,-80.26325226,3010,FALSE,TRUE,647,10,-1,-1,0,0,1941,2018,62,TRUE
02DC005,TEMAGAMI RIVER NEAR RIVER VALLEY,ON,5,D,,46.5961113,-80.18721771,2460,FALSE,FALSE,,,-1,0,0,0,1941,1962,22,TRUE
02DC006,TOMIKO RIVER AT OUTLET OF TOMIKO LAKE,ON,5,D,,46.50138855,-79.89333344,570,FALSE,FALSE,,,-1,0,0,0,1941,1960,20,TRUE
02DC007,TEMAGAMI RIVER AT CROSS LAKE DAM,ON,5,D,,46.77806091,-79.97860718,1360,FALSE,FALSE,485,89,-1,0,0,0,1938,1994,57,TRUE
02DC008,TEMAGAMI RIVER AT RED CEDAR LAKE DAM,ON,5,D,,46.6791687,-79.99500275,2360,FALSE,FALSE,477,10,-1,0,0,0,1938,1994,57,TRUE
02DC009,MARTEN RIVER AT WICKSTEED LAKE DAM,ON,5,D,,46.71194077,-79.73693848,298,FALSE,FALSE,477,35,-1,0,0,0,1947,1976,30,TRUE
02DC010,TEMAGAMI LAKE AT TEMAGAMI,ON,5,D,,47.06277847,-79.79556274,,FALSE,FALSE,485,35,0,-1,0,0,1926,1994,69,TRUE
02DC011,STURGEON RIVER AT LOWER GOOSE FALLS,ON,5,D,,46.93693924,-80.43138885,1800,FALSE,FALSE,,10,-1,0,0,0,1981,1985,5,FALSE
02DC012,STURGEON RIVER AT UPPER GOOSE FALLS,ON,5,A,,46.97024918,-80.45877838,1200,FALSE,TRUE,647,10,-1,-1,0,0,1986,2018,33,FALSE
02DC013,LITTLE STURGEON RIVER BELOW BOOTH LAKE,ON,5,A,,46.42760849,-79.66203308,164,FALSE,TRUE,647,10,-1,-1,0,0,2008,2018,11,FALSE
02DD001,SOUTH RIVER NEAR POWASSAN,ON,5,D,,46.09444046,-79.39582825,761,FALSE,FALSE,477,10,-1,0,0,0,1914,1936,23,TRUE
02DD002,SOUTH RIVER ABOVE TRUISLER CHUTE,ON,5,D,,45.96332932,-79.40583038,420,FALSE,FALSE,,,-1,0,0,0,1919,1952,34,TRUE
02DD004,FRENCH RIVER AT FRENCH RIVER,ON,5,D,,46.02056122,-80.57305908,13900,FALSE,FALSE,,,-1,0,0,0,1930,1962,33,TRUE
02DD005,SOUTH RIVER NEAR NIPISSING,ON,5,D,,46.09693909,-79.47917175,787,FALSE,FALSE,,10,-1,0,0,0,1937,1984,48,TRUE
02DD006,LAKE NIPISSING AT NORTH BAY,ON,5,A,,46.31182861,-79.47380829,,FALSE,TRUE,647,10,0,-1,0,0,1933,2018,86,TRUE
02DD007,FRENCH RIVER AT LAKE NIPISSING,ON,5,D,,46.125,-80.01528168,12300,FALSE,FALSE,647,34,-1,0,0,0,1951,1997,47,TRUE
02DD008,DUCHESNAY RIVER NEAR NORTH BAY,ON,5,D,,46.33139038,-79.50556183,90.40000153,FALSE,FALSE,,10,-1,0,0,0,1956,1982,27,FALSE
02DD009,SOUTH RIVER AT SOUTH RIVER,ON,5,D,,45.84833145,-79.37944031,316,FALSE,FALSE,,10,-1,0,0,0,1956,1991,36,TRUE
02DD010,FRENCH RIVER AT DRY PINE BAY,ON,5,A,D,46.06858063,-80.61164093,13900,FALSE,TRUE,647,10,-1,-1,0,0,1961,2018,58,TRUE
02DD012,VEUVE RIVER NEAR VERNER,ON,5,A,,46.40819168,-80.12281036,741,FALSE,TRUE,647,10,-1,-1,0,0,1973,2017,30,FALSE
02DD013,LA VASE RIVER AT NORTH BAY,ON,5,A,,46.26343918,-79.39511108,68.59999847,FALSE,TRUE,647,10,-1,-1,0,0,1974,2017,44,FALSE
02DD014,CHIPPEWA CREEK AT NORTH BAY,ON,5,A,D,46.31177902,-79.44835663,35.59999847,FALSE,TRUE,647,10,-1,-1,0,0,1974,2017,44,FALSE
02DD015,COMMANDA CREEK NEAR COMMANDA,ON,5,A,,45.94918823,-79.60658264,104,FALSE,TRUE,647,10,-1,-1,0,0,1974,2017,44,FALSE
02DD016,FRENCH RIVER AT PORTAGE DAM,ON,5,A,,46.12049866,-80.01808167,,FALSE,TRUE,647,10,-1,-1,0,0,1980,2017,21,TRUE
02DD017,FRENCH RIVER AT CHAUDIERE DAM,ON,5,A,,46.12083054,-80.02749634,,FALSE,TRUE,647,10,-1,-1,0,0,1980,2017,26,TRUE
02DD018,LITTLE FRENCH RIVER AT FREEFLOWING CHANNEL,ON,5,D,,46.14194107,-80.11444092,,FALSE,FALSE,,34,-1,0,0,0,1980,1981,2,FALSE
02DD019,LITTLE FRENCH RIVER AT LITTLE CHAUDIERE DAM,ON,5,D,,46.1444397,-80.12805939,,FALSE,FALSE,,34,-1,0,0,0,1980,1981,2,TRUE
02DD020,LITTLE FRENCH RIVER AT OKIKENDAWT ISLAND,ON,5,A,,46.12313843,-80.07910919,,FALSE,TRUE,647,12,-1,-1,0,0,1982,2017,23,FALSE
02DD021,LAKE NIPISSING AT FRENCH RIVER OUTLET,ON,5,A,,46.12553024,-80.01230621,,FALSE,TRUE,647,10,0,-1,0,0,1951,2018,56,TRUE
02DD022,DOLLARS LAKE BELOW S NARROWS,ON,5,A,,45.92039108,-80.24175262,,FALSE,TRUE,647,10,0,-1,0,0,2005,2018,14,TRUE
02DD023,FOREST LAKE AT SOUTH RIVER,ON,5,A,,45.83969116,-79.35691833,,FALSE,TRUE,647,10,0,-1,0,0,2005,2018,14,FALSE
02DD024,WASI RIVER NEAR ASTORVILLE,ON,5,A,,46.17842102,-79.30989075,301,FALSE,TRUE,647,10,-1,-1,0,0,2007,2017,11,TRUE
02DD025,FRENCH RIVER AT HARTLEY BAY,ON,5,A,,46.0352211,-80.76010895,1.549999952,FALSE,TRUE,647,35,0,-1,0,0,2008,2018,11,TRUE
02DD026,FRENCH RIVER AT WOLSELEY BAY,ON,5,A,,46.10572052,-80.26528168,199,FALSE,TRUE,647,35,-1,-1,0,0,2008,2018,11,TRUE
02EA001,SEGUIN RIVER NEAR PARRY SOUND,ON,5,D,,45.40277863,-79.90693665,984,FALSE,FALSE,477,,-1,0,0,0,1915,1917,3,TRUE
02EA005,NORTH MAGNETAWAN RIVER NEAR BURK'S FALLS,ON,5,A,,45.66947174,-79.37918854,329,TRUE,TRUE,647,10,-1,-1,0,0,1915,2018,104,FALSE
02EA006,MAGNETAWAN RIVER NEAR BURK'S FALLS,ON,5,D,,45.61750031,-79.38806152,650,FALSE,FALSE,647,10,-1,0,0,0,1915,1998,84,TRUE
02EA007,MAGNETAWAN RIVER NEAR BYNG INLET,ON,5,D,,45.77222061,-80.4805603,2800,FALSE,FALSE,,,-1,0,0,0,1945,1949,5,TRUE
02EA008,MAGNETAWAN RIVER AT MAPLE ISLAND,ON,5,D,,45.70721817,-79.87722015,1850,FALSE,FALSE,,,-1,0,0,0,1945,1957,13,TRUE
02EA009,HARRIS CREEK NEAR NAISCOOT,ON,5,D,,45.68167114,-80.46888733,46.59999847,FALSE,FALSE,,,-1,0,0,0,1945,1948,4,TRUE
02EA010,NORTH MAGNETAWAN RIVER ABOVE PICKEREL LAKE,ON,5,A,D,45.70376968,-79.30879211,155,FALSE,TRUE,647,10,-1,-1,-1,-1,1968,2017,50,FALSE
02EA011,MAGNETAWAN RIVER NEAR BRITT,ON,5,A,D,45.77305984,-80.48233032,2840,FALSE,TRUE,647,10,-1,-1,0,0,1973,2017,45,TRUE
02EA012,SHAWANAGA RIVER AT HIGHWAY NO. 69,ON,5,D,,45.54943848,-80.28472137,235,FALSE,FALSE,,10,-1,0,0,0,1974,1978,5,FALSE
02EA013,HARRIS RIVER AT HIGHWAY NO. 69,ON,5,D,,45.6875,-80.43943787,35.5,FALSE,FALSE,,10,-1,0,0,0,1976,1987,12,FALSE
02EA014,LAKE HURON AT PARRY SOUND,ON,5,A,,45.3385582,-80.03578186,,FALSE,FALSE,218,46,0,-1,0,0,1960,2018,59,FALSE
02EA015,CECEBE LAKE AT MAGNETAWAN,ON,5,A,,45.6649704,-79.64096832,,FALSE,TRUE,647,10,0,-1,0,0,2002,2018,17,TRUE
02EA016,DOE LAKE NEAR KATRINE,ON,5,A,,45.57194901,-79.36685181,,FALSE,TRUE,647,10,0,-1,0,0,2002,2018,17,TRUE
02EA017,AHMIC LAKE AT MAGNETAWAN,ON,5,D,,45.66543961,-79.64150238,,FALSE,FALSE,647,10,0,-1,0,0,2002,2008,7,TRUE
02EA018,MAGNETAWAN RIVER NEAR EMSDALE,ON,5,A,,45.55670166,-79.28797913,403,FALSE,TRUE,647,10,-1,-1,0,0,2002,2017,16,FALSE
02EA019,AHMIC LAKE NEAR AHMIC HARBOUR,ON,5,A,,45.6690712,-79.74520874,,FALSE,TRUE,647,10,0,-1,0,0,2005,2018,14,TRUE
02EA020,BERNARD LAKE AT SUNDRIDGE,ON,5,A,,45.7179985,-79.41732788,,FALSE,TRUE,647,10,0,-1,0,0,2005,2018,14,FALSE
02EA021,SHAWANAGA RIVER BELOW SHAWANAGA LAKE,ON,5,A,,45.55894089,-80.0379715,70.40000153,FALSE,TRUE,647,10,-1,-1,0,0,2007,2017,11,FALSE
02EB002,SOUTH BRANCH MUSKOKA RIVER AT BLACK BRIDGE,ON,5,D,,44.98332977,-79.25055695,1730,FALSE,FALSE,,,-1,0,0,0,1914,1929,16,TRUE
02EB003,SOUTH BRANCH MUSKOKA RIVER AT MATHIAS,ON,5,D,,44.9888916,-79.20194244,1710,FALSE,FALSE,,,-1,0,0,0,1929,1949,21,TRUE
02EB004,NORTH BRANCH MUSKOKA RIVER AT PORT SYDNEY,ON,5,A,,45.21286011,-79.27528381,1410,FALSE,TRUE,647,10,-1,-1,0,0,1915,2018,104,TRUE
02EB005,MUSKOKA RIVER NEAR BALA,ON,5,D,,45.02500153,-79.67388916,4840,FALSE,FALSE,,,-1,0,0,0,1923,1937,15,TRUE
02EB006,MUSKOKA RIVER BELOW BALA,ON,5,A,,45.02249908,-79.67832947,4770,FALSE,FALSE,647,10,-1,0,0,0,1937,2017,81,TRUE
02EB007,NORTH BRANCH MUSKOKA RIVER NEAR PORT SYDNEY,ON,5,D,,45.18278122,-79.27610779,1440,FALSE,FALSE,,,-1,0,0,0,1939,1962,24,TRUE
02EB008,SOUTH BRANCH MUSKOKA RIVER AT BAYSVILLE,ON,5,A,,45.14796829,-79.1135025,1400,FALSE,TRUE,647,10,-1,-1,0,0,1941,2018,72,TRUE
02EB009,MOON RIVER AT ISLAND FALLS,ON,5,D,,45.02944183,-79.69721985,,FALSE,FALSE,477,,-1,0,0,0,1923,1966,34,TRUE
02EB010,MUSKOKA RIVER AT RAGGED RAPIDS,ON,5,D,,45.01556015,-79.68888855,,FALSE,FALSE,477,,-1,0,0,0,1923,1967,35,TRUE
02EB011,MOON RIVER AT HIGHWAY NO. 400,ON,5,A,D,45.06505966,-79.79013824,4790,FALSE,TRUE,647,10,-1,-1,0,0,1965,2018,54,TRUE
02EB012,MUSQUASH RIVER AT HIGHWAY NO. 400,ON,5,A,D,45.0225296,-79.77680969,,FALSE,TRUE,647,10,-1,-1,0,0,1965,2018,54,TRUE
02EB013,BIG EAST RIVER NEAR HUNTSVILLE,ON,5,A,,45.39271927,-79.15994263,610,FALSE,TRUE,647,10,-1,-1,0,0,1973,2017,45,TRUE
02EB014,OXTONGUE RIVER NEAR DWIGHT,ON,5,A,,45.31196976,-78.98938751,605,FALSE,TRUE,647,10,-1,-1,0,0,1981,2018,38,FALSE
02EB015,BALA BAY AT BALA,ON,5,A,,45.01314163,-79.61353302,,FALSE,TRUE,647,178,0,-1,0,0,2003,2018,16,TRUE
02EB016,FAIRY LAKE AT HUNTSVILLE,ON,5,A,,45.32419968,-79.21193695,,FALSE,TRUE,647,10,0,-1,0,0,2002,2018,17,FALSE
02EB017,KAWAGAMA LAKE AT RUSSELL LANDING,ON,5,A,,45.26403046,-78.81468964,,FALSE,TRUE,647,10,0,-1,0,0,2002,2017,16,TRUE
02EB018,LAKE MUSKOKA AT BEAUMARIS,ON,5,A,,45.07041931,-79.49382782,,FALSE,TRUE,647,10,0,-1,0,0,2002,2018,17,TRUE
02EB019,LAKE OF BAYS AT BAYSVILLE,ON,5,A,,45.14881134,-79.11328125,1400,FALSE,TRUE,647,10,0,-1,0,0,2002,2018,17,TRUE
02EB020,LAKE ROSSEAU AT PORT CARLING,ON,5,A,,45.12007904,-79.57649994,,FALSE,TRUE,647,10,0,-1,0,0,2002,2018,17,TRUE
02EB021,MARY LAKE AT PORT SYDNEY,ON,5,A,,45.21986008,-79.27639008,,FALSE,TRUE,647,10,0,-1,0,0,2002,2018,17,TRUE
02EB022,SMOKE LAKE AT ALGONQUIN PROVINCIAL PARK,ON,5,A,,45.54156113,-78.69538879,,FALSE,TRUE,647,10,0,-1,0,0,2002,2018,17,FALSE
02EB023,GO HOME LAKE NEAR POTTERS LANDING,ON,5,A,,44.98611069,-79.82858276,,FALSE,TRUE,647,178,0,-1,0,0,2003,2018,16,TRUE
02EB103,ROSSEAU RIVER AT HIGHWAY NO. 141,ON,5,D,,45.2388916,-79.58361053,130,FALSE,FALSE,485,10,-1,0,0,0,1969,1977,9,FALSE
02EB104,HAWKROCK RIVER AT GRAVENHURST,ON,5,D,,44.93222046,-79.35639191,40.70000076,FALSE,FALSE,485,10,-1,0,0,0,1969,1976,8,FALSE
02EB105,DEE RIVER AT DEE BANK,ON,5,D,,45.17889023,-79.52361298,155,FALSE,FALSE,485,10,-1,0,0,0,1969,1972,4,FALSE
02EC001,SEVERN RIVER AT SEVERN BRIDGE,ON,5,D,,44.77639008,-79.3347168,5390,FALSE,FALSE,477,,-1,0,0,0,1913,1914,2,FALSE
02EC002,BLACK RIVER NEAR WASHAGO,ON,5,A,,44.71366882,-79.28160858,1510,TRUE,TRUE,647,10,-1,-1,0,0,1915,2018,104,FALSE
02EC003,SEVERN RIVER AT SWIFT RAPIDS,ON,5,A,,44.85694122,-79.54167175,5850,FALSE,TRUE,493,10,-1,0,0,0,1953,2018,66,TRUE
02EC004,SEVERN RIVER BELOW WASHAGO,ON,5,D,,44.75444031,-79.31889343,,FALSE,FALSE,647,10,-1,0,0,0,1963,2004,42,TRUE
02EC005,SEVERN RIVER AT WASHAGO,ON,5,D,,44.76388931,-79.33027649,,FALSE,FALSE,647,10,-1,0,0,0,1962,1993,32,TRUE
02EC006,SEVERN RIVER AT BIG FALLS,ON,5,D,,44.74111176,-79.32805634,,FALSE,FALSE,647,10,-1,0,0,0,1962,1993,32,TRUE
02EC007,SEVERN RIVER AT LITTLE FALLS,ON,5,D,,44.74583054,-79.32527924,,FALSE,FALSE,647,10,-1,0,0,0,1962,1993,32,TRUE
02EC008,BLACK RIVER AT BALDWIN,ON,5,A,,44.26063919,-79.34388733,272,FALSE,TRUE,647,10,-1,-1,0,0,1964,2018,35,TRUE
02EC009,HOLLAND RIVER EAST BRANCH AT HOLLAND LANDING,ON,5,A,D,44.09492111,-79.48956299,176,FALSE,TRUE,647,10,-1,-1,0,0,1965,2018,54,FALSE
02EC010,SCHOMBERG RIVER NEAR SCHOMBERG,ON,5,A,,44.01213837,-79.68563843,51.29999924,FALSE,TRUE,647,10,-1,-1,0,0,1966,2018,50,FALSE
02EC011,BEAVER RIVER NEAR BEAVERTON,ON,5,A,,44.39707947,-79.0708313,291,FALSE,TRUE,647,10,-1,-1,0,0,1966,2018,41,FALSE
02EC012,BLACK RIVER AT SUTTON,ON,5,D,,44.30500031,-79.3602829,324,FALSE,FALSE,,10,-1,0,0,0,1969,1983,15,TRUE
02EC013,MIDDLE SEVERN RIVER AT WASHAGO,ON,5,D,,44.74888992,-79.33249664,,FALSE,FALSE,647,10,-1,0,0,0,1963,1993,31,TRUE
02EC014,SEVERN RIVER ABOVE WASDELL FALLS,ON,5,A,,44.77531052,-79.29714203,5310,FALSE,TRUE,647,10,-1,-1,0,0,1978,2017,19,TRUE
02EC015,LAKE SIMCOE NEAR GAMEBRIDGE,ON,5,D,,44.47277832,-79.16722107,,FALSE,FALSE,647,10,0,-1,0,0,1960,1995,36,FALSE
02EC016,TRENT CANAL LOCK 42 NEAR WASHAGO,ON,5,D,,44.76971817,-79.35028076,,FALSE,FALSE,493,10,-1,0,0,0,1963,2004,42,TRUE
02EC017,LAKE COUCHICHING OUTFLOW AT WASHAGO,ON,5,D,,44.76667023,-79.33332825,3700,FALSE,FALSE,647,10,-1,0,0,0,1926,2004,79,TRUE
02EC018,PEFFERLAW BROOK NEAR UDORA,ON,5,A,,44.26752853,-79.1946106,347,FALSE,TRUE,647,10,-1,-1,0,0,1987,2018,32,FALSE
02EC019,BLACK RIVER NEAR VANKOUGHNET,ON,5,A,,44.99256134,-79.04956055,354,FALSE,TRUE,647,10,-1,-1,0,0,2005,2018,14,FALSE
02EC020,HAWKESTONE CREEK AT HAWKESTONE,ON,5,A,,44.49697113,-79.4679718,40.20000076,FALSE,TRUE,647,10,-1,-1,0,0,2005,2018,14,FALSE
02EC021,UXBRIDGE BROOK NEAR UXBRIDGE,ON,5,A,,44.1380806,-79.11276245,40.59999847,FALSE,TRUE,647,10,-1,-1,0,0,2005,2018,14,FALSE
02EC022,HEAD RIVER NEAR SEBRIGHT,ON,5,A,,44.72560883,-79.0704422,233,FALSE,TRUE,647,10,-1,-1,0,0,2014,2018,5,FALSE
02EC101,UXBRIDGE BROOK AT UXBRIDGE,ON,5,D,,44.11249924,-79.1222229,24.29999924,FALSE,FALSE,647,10,-1,0,0,0,1970,1985,16,TRUE
02EC103,PEFFERLAW BROOK NEAR UDORA,ON,5,D,,44.2677803,-79.19499969,332,FALSE,FALSE,485,10,-1,0,0,0,1969,1986,18,FALSE
02EC918,SEVERN RIVER ABOVE SPARROW LAKE,ON,5,D,,44.77305984,-79.35305786,,FALSE,FALSE,647,10,-1,0,0,0,1993,2004,12,FALSE
02ED001,NOTTAWASAGA RIVER NEAR NICOLSTON,ON,5,D,,44.19610977,-79.80166626,1080,FALSE,FALSE,477,,-1,0,0,0,1914,1917,4,TRUE
02ED003,NOTTAWASAGA RIVER NEAR BAXTER,ON,5,A,D,44.24980927,-79.82141876,1230,FALSE,TRUE,647,10,-1,-1,-1,-1,1947,2018,72,FALSE
02ED004,BAILEY CREEK NEAR BEETON,ON,5,D,D,44.11888885,-79.76194,207,FALSE,FALSE,485,10,-1,0,0,0,1963,1978,16,TRUE
02ED005,MAD RIVER NEAR GLENCAIRN,ON,5,D,D,44.30443954,-80.00193787,295,FALSE,FALSE,,10,-1,0,0,0,1963,1987,25,TRUE
02ED006,O.W.R.C. RESEARCH STATION NO. 1 NEAR STAYNER,ON,5,D,,44.37833023,-80.09750366,,FALSE,FALSE,,,-1,0,0,0,1964,1971,8,FALSE
02ED007,COLDWATER RIVER AT COLDWATER,ON,5,A,D,44.70719147,-79.64375305,168,FALSE,TRUE,647,10,-1,-1,0,0,1965,2018,54,FALSE
02ED008,O.W.R.C. RESEARCH STATION NO. 2 NEAR STAYNER,ON,5,D,,44.37722015,-80.09638977,,FALSE,FALSE,,,-1,0,0,0,1965,1971,7,FALSE
02ED009,WILLOW CREEK ABOVE LITTLE LAKE,ON,5,D,,44.42472076,-79.64417267,94.80000305,FALSE,FALSE,647,10,-1,0,0,0,1973,1995,23,FALSE
02ED010,WILLOW CREEK AT MIDHURST,ON,5,A,,44.44417191,-79.72972107,127,FALSE,FALSE,647,10,-1,0,0,0,1973,1998,26,FALSE
02ED011,WYE RIVER AT WYEBRIDGE,ON,5,D,,44.69388962,-79.88278198,168,FALSE,FALSE,,10,-1,0,0,0,1973,1986,14,FALSE
02ED012,LAKE HURON AT COLLINGWOOD,ON,5,A,,44.50841904,-80.22007751,,FALSE,FALSE,218,46,0,-1,0,0,1906,2018,111,FALSE
02ED013,WYE RIVER NEAR WYEVALE,ON,5,A,D,44.64978027,-79.90374756,121,FALSE,TRUE,647,10,-1,-1,0,0,1987,2018,32,FALSE
02ED014,PINE RIVER NEAR EVERETT,ON,5,A,D,44.20003128,-79.95999908,190,FALSE,TRUE,647,10,-1,-1,0,0,1967,2018,48,FALSE
02ED015,MAD RIVER AT AVENING,ON,5,A,D,44.3073616,-80.07202911,244,FALSE,TRUE,647,10,-1,-1,0,0,1988,2018,31,FALSE
02ED016,TRIBUTARY TO WYE RIVER BELOW ELMVALE,ON,5,D,,44.59249878,-79.87082672,15.30000019,FALSE,FALSE,647,10,-1,0,0,0,1988,1994,7,FALSE
02ED017,HOGG CREEK NEAR VICTORIA HARBOUR,ON,5,A,D,44.72605896,-79.77896881,65.19999695,FALSE,TRUE,647,10,-1,-1,0,0,1988,2018,31,FALSE
02ED018,STURGEON RIVER AT STURGEON BAY,ON,5,D,D,44.73028183,-79.71971893,103,FALSE,FALSE,647,10,-1,0,0,0,1988,1998,11,FALSE
02ED019,COPELAND CREEK NEAR PENETAGUISHENE,ON,5,D,D,44.76361084,-79.95278168,20.79999924,FALSE,FALSE,647,10,-1,0,0,0,1988,1999,12,FALSE
02ED020,MATCHEDASH BAY BELOW HIGHWAY 69,ON,5,D,,44.75888824,-79.70082855,,FALSE,FALSE,647,10,0,-1,0,0,1988,1992,5,FALSE
02ED021,MATCHEDASH BAY ABOVE HIGHWAY 69,ON,5,D,,44.75806046,-79.6986084,,FALSE,FALSE,647,10,0,-1,0,0,1988,1992,5,FALSE
02ED022,NORTH RIVER NEAR COLDWATER,ON,5,D,,44.73944092,-79.63667297,,FALSE,FALSE,647,10,0,-1,0,0,1988,1992,5,FALSE
02ED023,NORTH RIVER NEAR LOVERING,ON,5,D,,44.76832962,-79.62000275,,FALSE,FALSE,647,10,0,-1,0,0,1990,1992,3,FALSE
02ED024,NORTH RIVER AT THE FALLS,ON,5,A,D,44.76766968,-79.57827759,244,FALSE,TRUE,647,10,-1,-1,0,0,1988,2018,31,FALSE
02ED025,BLACK ASH CREEK AT COLLINGWOOD,ON,5,D,D,44.50138855,-80.23806,30.5,FALSE,FALSE,647,10,-1,0,0,0,1989,1992,4,FALSE
02ED026,NOTTAWASAGA RIVER AT HOCKLEY,ON,5,A,,44.02474976,-79.96988678,176,FALSE,TRUE,647,10,-1,-1,0,0,1989,2018,30,FALSE
02ED027,NOTTAWASAGA RIVER NEAR EDENVALE,ON,5,A,D,44.48500061,-79.96600342,2690,FALSE,TRUE,647,10,-1,-1,0,0,1993,2018,26,TRUE
02ED028,SILVER CREEK NEAR ORILLIA,ON,5,D,,44.66799927,-79.45667267,24,FALSE,FALSE,647,10,-1,-1,0,0,1999,2005,6,FALSE
02ED029,INNISFIL CREEK NEAR ALLISTON,ON,5,A,,44.13122177,-79.78096771,479,FALSE,TRUE,647,10,-1,-1,0,0,2000,2018,18,FALSE
02ED030,SILVER CREEK AT ORILLIA,ON,5,A,,44.64680862,-79.45202637,10.5,FALSE,TRUE,647,10,-1,-1,0,0,2005,2018,14,FALSE
02ED031,PRETTY RIVER AT COLLINGWOOD,ON,5,A,,44.50006104,-80.19872284,68.19999695,FALSE,TRUE,647,10,-1,-1,0,0,2005,2018,13,FALSE
02ED032,WILLOW CREEK NEAR MINESING,ON,5,A,,44.44250107,-79.79949951,231,FALSE,TRUE,647,10,-1,-1,0,0,2005,2018,14,FALSE
02ED033,LAKE HURON AT MIDLAND,ON,5,A,,44.75278091,-79.88806152,,FALSE,FALSE,218,46,0,-1,0,0,2011,2018,8,FALSE
02ED100,BEETON CREEK NEAR TOTTENHAM,ON,5,A,,44.04914093,-79.8033905,86,FALSE,TRUE,647,10,-1,-1,0,0,1968,2018,41,TRUE
02ED101,NOTTAWASAGA RIVER NEAR ALLISTON,ON,5,A,,44.11058044,-79.89028168,328,FALSE,TRUE,647,10,-1,-1,0,0,1967,2018,34,FALSE
02ED102,BOYNE RIVER AT EARL ROWE PARK,ON,5,A,,44.15250015,-79.89663696,216,FALSE,TRUE,647,10,-1,-1,0,0,1967,2018,42,FALSE
02FA001,SAUBLE RIVER AT SAUBLE FALLS,ON,5,A,D,44.67752838,-81.25605774,913,FALSE,TRUE,647,10,-1,-1,0,0,1957,2018,62,TRUE
02FA002,STOKES RIVER NEAR FERNDALE,ON,5,A,D,45.03696823,-81.33635712,50.5,FALSE,TRUE,647,10,-1,-1,0,0,1976,2018,43,FALSE
02FA003,LAKE HURON AT TOBERMORY,ON,5,A,,45.25680923,-81.6629715,,FALSE,FALSE,218,46,0,-1,0,0,1962,2018,57,FALSE
02FA004,SAUBLE RIVER AT ALLENFORD,ON,5,A,,44.53553009,-81.1776886,312,FALSE,TRUE,647,10,-1,-1,0,0,1987,2018,25,FALSE
02FA005,SAUBLE RIVER ABOVE TARA,ON,5,D,,44.46221924,-81.14861298,233,FALSE,FALSE,647,10,0,-1,0,0,1988,1994,7,FALSE
02FB001,BEAVER RIVER ABOVE EUGENIA POWER HOUSE,ON,5,D,,44.33889008,-80.53888702,254,FALSE,FALSE,,,-1,0,0,0,1918,1951,34,TRUE
02FB003,BEAVER RIVER NEAR KIMBERLEY,ON,5,D,,44.34444046,-80.53888702,262,FALSE,FALSE,,,-1,0,0,0,1915,1951,37,TRUE
02FB004,BEAVER RIVER NEAR FEVERSHAM,ON,5,D,,44.3208313,-80.40000153,81.59999847,FALSE,FALSE,477,,-1,0,0,0,1914,1915,2,FALSE
02FB005,BIGHEAD RIVER AT MEAFORD,ON,5,D,,44.60361099,-80.59722137,342,FALSE,FALSE,477,,-1,0,0,0,1915,1917,3,TRUE
02FB006,MILL CREEK NEAR RED WING,ON,5,D,,44.45000076,-80.44721985,127,FALSE,FALSE,477,,-1,0,0,0,1915,1915,1,TRUE
02FB007,SYDENHAM RIVER NEAR OWEN SOUND,ON,5,A,D,44.52225113,-80.93019104,183,TRUE,TRUE,647,10,-1,-1,0,0,1915,2018,86,FALSE
02FB008,BEAVER RIVER AT EUGENIA,ON,5,D,,44.29999924,-80.51667023,179,FALSE,FALSE,477,,-1,0,0,0,1910,1914,4,FALSE
02FB009,BEAVER RIVER NEAR CLARKSBURG,ON,5,A,D,44.51985931,-80.46778107,587,FALSE,TRUE,647,10,-1,-1,0,0,1957,2018,62,TRUE
02FB010,BIGHEAD RIVER NEAR MEAFORD,ON,5,A,D,44.57017136,-80.64849854,298,FALSE,TRUE,647,10,-1,-1,0,0,1957,2018,62,FALSE
02FB012,MILL CREEK NEAR RED WING,ON,5,A,,44.46422958,-80.48576355,105,FALSE,TRUE,647,10,-1,-1,0,0,2005,2018,14,FALSE
02FB013,BEAVER RIVER NEAR VANDELEUR,ON,5,A,,44.34614182,-80.5399704,279,FALSE,TRUE,647,10,-1,-1,0,0,2005,2018,14,FALSE
02FB014,BIGHEAD RIVER NEAR STRATHAVON,ON,5,A,,44.47177887,-80.7765274,56.20000076,FALSE,TRUE,647,10,-1,-1,0,0,2005,2018,14,FALSE
02FC001,SAUGEEN RIVER NEAR PORT ELGIN,ON,5,A,D,44.45647049,-81.3264389,3950,TRUE,TRUE,647,10,-1,-1,-1,-1,1914,2018,105,TRUE
02FC002,SAUGEEN RIVER NEAR WALKERTON,ON,5,A,,44.12046814,-81.11533356,2140,FALSE,TRUE,647,10,-1,-1,0,0,1914,2018,105,TRUE
02FC004,ROCKY SAUGEEN RIVER NEAR TRAVERSTON,ON,5,D,,44.26221848,-80.76555634,249,FALSE,FALSE,647,10,-1,0,0,0,1915,1940,26,FALSE
02FC005,ROCKY SAUGEEN RIVER NEAR MARKDALE,ON,5,D,,44.32611084,-80.66166687,109,FALSE,FALSE,647,,-1,0,0,0,1920,1924,5,FALSE
02FC009,ARMSTRONG CREEK AT MARKDALE,ON,5,D,,44.31193924,-80.65721893,9.319999695,FALSE,FALSE,,,-1,0,0,0,1920,1920,1,FALSE
02FC011,CARRICK CREEK NEAR CARLSRUHE,ON,5,A,,44.11339188,-81.01924896,156,FALSE,TRUE,647,10,-1,-1,0,0,1953,2018,59,FALSE
02FC012,SOUTH SAUGEEN RIVER NEAR HANOVER,ON,5,A,,44.09869003,-80.98455811,635,FALSE,TRUE,647,10,-1,-1,0,0,1972,2018,41,TRUE
02FC013,NORTH SAUGEEN RIVER NEAR PAISLEY,ON,5,D,,44.31777954,-81.24610901,262,FALSE,FALSE,,10,-1,0,0,0,1972,1986,15,TRUE
02FC014,SAUGEEN RIVER NEAR DURHAM,ON,5,D,,44.19166946,-80.85722351,381,FALSE,FALSE,,10,-1,0,0,0,1972,1977,6,TRUE
02FC015,TEESWATER RIVER NEAR PAISLEY,ON,5,A,,44.26831055,-81.26918793,670,FALSE,TRUE,647,10,-1,-1,0,0,1972,2018,44,TRUE
02FC016,SAUGEEN RIVER ABOVE DURHAM,ON,5,A,,44.18542099,-80.78746796,329,FALSE,TRUE,647,10,-1,-1,0,0,1976,2018,37,FALSE
02FC017,BEATTY SAUGEEN RIVER NEAR HOLSTEIN,ON,5,A,,44.09046936,-80.74194336,50.70000076,FALSE,TRUE,647,10,-1,-1,0,0,1985,2018,23,FALSE
02FC018,NORTH SAUGEEN RIVER ABOVE CHESLEY,ON,5,D,,44.31806183,-81.04055786,216,FALSE,FALSE,647,10,-1,0,0,0,1986,1992,7,FALSE
02FC019,HAMILTON CREEK NEAR HOLLAND CENTRE,ON,5,D,D,44.40694046,-80.76277924,59.79999924,FALSE,FALSE,647,10,-1,0,0,0,1993,1994,2,FALSE
02FC020,TEESWATER RIVER AT TEESWATER,ON,5,A,,44.00061035,-81.28381348,125,FALSE,TRUE,647,10,-1,-1,0,0,2005,2018,14,FALSE
02FC021,CAMP CREEK AT ALLAN PARK,ON,5,A,,44.16106033,-80.92910767,99.90000153,FALSE,TRUE,647,10,-1,-1,0,0,2005,2018,14,FALSE
02FD001,PINE RIVER AT LURGAN,ON,5,A,D,44.09466934,-81.72577667,156,FALSE,TRUE,647,10,-1,-1,0,0,1974,2018,38,FALSE
02FD002,LUCKNOW RIVER AT LUCKNOW,ON,5,A,D,43.96527863,-81.51344299,54.90000153,FALSE,TRUE,647,10,-1,-1,-1,-1,1979,2018,32,FALSE
02FD003,NORTH PENETANGORE RIVER AT KINCARDINE,ON,5,A,,44.1728096,-81.63105774,100,FALSE,TRUE,647,10,-1,-1,0,0,2002,2018,17,FALSE
02FE001,MAITLAND RIVER AT BENMILLER,ON,5,D,,43.71805954,-81.62638855,2460,FALSE,FALSE,477,,-1,0,0,0,1911,1917,7,FALSE
02FE002,MAITLAND RIVER BELOW WINGHAM,ON,5,A,,43.88674927,-81.3264389,1640,FALSE,TRUE,647,10,-1,-1,0,0,1953,2018,61,TRUE
02FE003,MIDDLE MAITLAND RIVER NEAR LISTOWEL,ON,5,A,,43.72723007,-80.97267151,73.40000153,FALSE,TRUE,647,10,-1,-1,0,0,1953,2018,66,TRUE
02FE004,MAITLAND RIVER NEAR DONNYBROOK,ON,5,D,D,43.82500076,-81.49056244,1760,FALSE,FALSE,,10,-1,0,-1,-1,1945,1987,43,TRUE
02FE005,MAITLAND RIVER ABOVE WINGHAM,ON,5,A,,43.91508102,-81.26438904,527,FALSE,TRUE,647,10,-1,-1,0,0,1953,2018,66,TRUE
02FE007,LITTLE MAITLAND RIVER AT BLUEVALE,ON,5,A,,43.85438919,-81.25050354,340,FALSE,TRUE,647,10,-1,-1,0,0,1967,2018,49,TRUE
02FE008,MIDDLE MAITLAND RIVER NEAR BELGRAVE,ON,5,A,,43.8128891,-81.3068924,645,FALSE,TRUE,647,10,-1,-1,0,0,1967,2018,46,FALSE
02FE009,SOUTH MAITLAND RIVER AT SUMMERHILL,ON,5,A,D,43.6843605,-81.54116821,371,FALSE,TRUE,647,10,-1,-1,-1,-1,1967,2018,52,FALSE
02FE010,BOYLE DRAIN NEAR ATWOOD,ON,5,A,,43.6763382,-81.07485199,205,FALSE,TRUE,647,10,-1,-1,0,0,1967,2018,30,FALSE
02FE011,MAITLAND RIVER NEAR HARRISTON,ON,5,A,,43.90380859,-80.89260864,112,FALSE,TRUE,647,10,-1,-1,0,0,1981,2018,32,FALSE
02FE012,LAKE HURON AT GODERICH,ON,5,A,,43.74539185,-81.72781372,,FALSE,FALSE,218,46,0,-1,0,0,1910,2018,109,FALSE
02FE013,MIDDLE MAITLAND RIVER ABOVE ETHEL,ON,5,A,,43.71839142,-81.12464142,416,FALSE,TRUE,647,10,-1,-1,0,0,1983,2018,30,FALSE
02FE014,BLYTH BROOK BELOW BLYTH,ON,5,A,,43.7603302,-81.46318817,74.69999695,FALSE,TRUE,647,10,-1,-1,0,0,1984,2018,28,FALSE
02FE015,MAITLAND RIVER AT BENMILLER,ON,5,A,D,43.71755981,-81.62619019,2540,FALSE,TRUE,647,10,-1,-1,0,0,1989,2018,30,TRUE
02FE016,SOUTH MAITLAND RIVER AT ROXBORO,ON,5,A,,43.57925034,-81.40131378,178,FALSE,TRUE,647,10,-1,-1,0,0,2005,2018,14,FALSE
02FE017,LAKELET CREEK NEAR GORRIE,ON,5,A,,43.89292145,-81.0632782,79.40000153,FALSE,TRUE,647,10,-1,-1,0,0,2005,2018,14,FALSE
02FE018,BLIND CREEK NEAR FORDWICH,ON,5,A,,43.89472961,-81.03733063,,FALSE,TRUE,647,10,-1,-1,0,0,2014,2018,5,FALSE
02FF001,AUSABLE RIVER NEAR ARKONA,ON,5,D,,43.07778168,-81.79611206,,FALSE,FALSE,477,,-1,0,0,0,1915,1917,3,FALSE
02FF002,AUSABLE RIVER NEAR SPRINGBANK,ON,5,A,D,43.07191849,-81.65975189,865,FALSE,TRUE,647,10,-1,-1,-1,-1,1945,2018,74,TRUE
02FF003,PARKHILL CREEK NEAR PARKHILL,ON,5,D,,43.1697197,-81.68332672,124,FALSE,FALSE,,,-1,0,0,0,1953,1967,15,FALSE
02FF004,SOUTH PARKHILL CREEK NEAR PARKHILL,ON,5,A,,43.16075134,-81.73182678,42.70000076,FALSE,TRUE,647,10,-1,-1,0,0,1955,2018,64,FALSE
02FF005,MORAY CREEK NEAR PARKHILL,ON,5,D,,43.21667099,-81.74555969,28.5,FALSE,FALSE,,,-1,0,0,0,1955,1966,12,FALSE
02FF006,SHIPKA CREEK NEAR GRAND BEND,ON,5,D,,43.27193832,-81.75,33.70000076,FALSE,FALSE,,,-1,0,0,0,1957,1972,14,FALSE
02FF007,BAYFIELD RIVER NEAR VARNA,ON,5,A,D,43.55125046,-81.58953094,460,FALSE,TRUE,647,10,-1,-1,0,0,1966,2018,53,FALSE
02FF008,PARKHILL CREEK ABOVE PARKHILL RESERVOIR,ON,5,A,D,43.16413116,-81.63150787,113,FALSE,TRUE,647,10,-1,-1,0,0,1973,2018,46,FALSE
02FF009,AUSABLE RIVER NEAR EXETER,ON,5,A,,43.36196899,-81.50943756,114,FALSE,TRUE,647,10,-1,-1,0,0,1984,2018,35,TRUE
02FF010,AUSABLE RIVER NEAR PARKHILL,ON,5,A,,43.19338989,-81.8144989,1110,FALSE,TRUE,647,10,0,-1,0,0,1997,2018,22,FALSE
02FF011,SILVER CREEK AT SEAFORTH,ON,5,A,,43.54536057,-81.3963623,15.5,FALSE,TRUE,647,10,-1,-1,0,0,2002,2018,17,TRUE
02FF012,PERCH CREEK AT SARNIA,ON,5,A,,42.98408127,-82.31874847,75.59999847,FALSE,TRUE,647,10,-1,-1,0,0,2002,2018,17,FALSE
02FF013,LITTLE AUSABLE RIVER NEAR LUCAN CROSSING,ON,5,A,,43.18056107,-81.44766998,144,FALSE,TRUE,647,10,-1,-1,0,0,2005,2018,14,FALSE
02FF014,BLACK CREEK NEAR HENSALL,ON,5,A,,43.41883087,-81.49546814,18.39999962,FALSE,TRUE,647,10,-1,-1,0,0,2005,2018,14,FALSE
02FF015,TRICKS CREEK NEAR CLINTON,ON,5,A,,43.59030914,-81.58410645,22.10000038,FALSE,TRUE,647,10,-1,-1,0,0,2005,2018,14,FALSE
02FF016,LITTLE AUSABLE RIVER NEAR CENTRALIA,ON,5,A,,43.28625107,-81.41564178,63.90000153,FALSE,TRUE,647,10,-1,-1,0,0,2014,2018,5,FALSE
02GA001,GRAND RIVER AT BELWOOD,ON,5,D,,43.79027939,-80.31667328,769,FALSE,FALSE,,,-1,0,0,0,1913,1923,11,FALSE
02GA002,GRAND RIVER AT CONESTOGO,ON,5,D,,43.54111099,-80.49443817,1420,FALSE,FALSE,477,,-1,0,0,0,1913,1923,11,FALSE
02GA003,GRAND RIVER AT GALT,ON,5,A,D,43.35311127,-80.31575012,3520,FALSE,TRUE,647,10,-1,-1,-1,-1,1913,2018,106,TRUE
02GA004,GRAND RIVER AT GLEN MORRIS,ON,5,D,,43.27666855,-80.34722137,3600,FALSE,FALSE,477,,-1,0,0,0,1913,1920,8,TRUE
02GA005,IRVINE RIVER NEAR SALEM,ON,5,A,,43.6935997,-80.4453125,168,FALSE,FALSE,647,10,-1,-1,0,0,1913,2018,17,FALSE
02GA006,CONESTOGO RIVER AT ST. JACOBS,ON,5,A,,43.54111099,-80.55332947,790,FALSE,TRUE,647,10,-1,-1,0,0,1913,2018,21,TRUE
02GA007,SPEED RIVER NEAR GUELPH,ON,5,D,,43.61167145,-80.24861145,180,FALSE,FALSE,477,65,-1,0,0,0,1913,1917,5,FALSE
02GA008,SPEED RIVER AT HESPELER,ON,5,D,,43.43167114,-80.31139374,707,FALSE,FALSE,477,,-1,0,0,0,1913,1949,21,TRUE
02GA009,GALT CREEK AT GALT,ON,5,D,,43.36027908,-80.31027985,117,FALSE,FALSE,477,,-1,0,0,0,1913,1916,4,FALSE
02GA010,NITH RIVER NEAR CANNING,ON,5,A,D,43.18972015,-80.45503235,1030,TRUE,TRUE,647,10,-1,-1,-1,-1,1913,2018,84,FALSE
02GA011,SPEED RIVER AT GUELPH,ON,5,D,,43.53332901,-80.23332977,500,FALSE,FALSE,477,,-1,0,0,0,1913,1913,1,TRUE
02GA012,SPEED RIVER NEAR ERAMOSA,ON,5,D,,43.59278107,-80.24472046,233,FALSE,FALSE,477,,-1,0,0,0,1913,1913,1,TRUE
02GA013,CONESTOGO RIVER NEAR CONESTOGO,ON,5,D,,43.52444077,-80.51528168,821,FALSE,FALSE,,,-1,0,0,0,1945,1958,14,TRUE
02GA014,GRAND RIVER NEAR MARSVILLE,ON,5,A,D,43.86172104,-80.2722168,663,FALSE,TRUE,647,10,-1,-1,0,0,1947,2018,62,TRUE
02GA015,SPEED RIVER BELOW GUELPH,ON,5,A,,43.53371811,-80.25222015,568,FALSE,TRUE,647,10,-1,-1,0,0,1950,2018,69,TRUE
02GA016,GRAND RIVER BELOW SHAND DAM,ON,5,A,,43.73094177,-80.34094238,785,FALSE,TRUE,647,10,-1,-1,0,0,1950,2018,67,TRUE
02GA017,CONESTOGO RIVER AT DRAYTON,ON,5,D,,43.75693893,-80.67111206,324,FALSE,FALSE,,,-1,0,0,0,1950,1972,23,FALSE
02GA018,NITH RIVER AT NEW HAMBURG,ON,5,A,,43.37722015,-80.7108078,544,FALSE,TRUE,647,10,-1,-1,0,0,1950,2018,68,FALSE
02GA020,SPEED RIVER ABOVE GUELPH,ON,5,D,,43.5588913,-80.26667023,269,FALSE,FALSE,,,-1,0,0,0,1953,1961,9,TRUE
02GA022,GRAND RIVER AT WALDEMAR,ON,5,D,,43.8966713,-80.28360748,655,FALSE,FALSE,,,-1,0,0,0,1952,1964,13,TRUE
02GA023,CANAGAGIGUE CREEK NEAR ELMIRA,ON,5,A,D,43.57992172,-80.50919342,114,FALSE,TRUE,647,10,-1,-1,-1,-1,1956,2018,63,TRUE
02GA024,LAUREL CREEK AT WATERLOO,ON,5,A,,43.47192001,-80.51426697,59.20000076,FALSE,TRUE,647,10,-1,-1,0,0,1959,2018,54,TRUE
02GA027,GRAND RIVER ABOVE LAKE BELWOOD,ON,5,D,,43.82917023,-80.29943848,749,FALSE,FALSE,,,-1,0,0,0,1961,1964,4,TRUE
02GA028,CONESTOGO RIVER AT GLEN ALLAN,ON,5,A,,43.65483093,-80.70217133,571,FALSE,TRUE,647,10,-1,-1,0,0,1959,2018,60,TRUE
02GA029,ERAMOSA RIVER ABOVE GUELPH,ON,5,A,,43.54777908,-80.18202972,231,FALSE,TRUE,647,10,-1,-1,0,0,1962,2018,57,TRUE
02GA030,ALDER CREEK NEAR NEW DUNDEE,ON,5,A,,43.37229156,-80.55108643,47.40000153,FALSE,TRUE,647,10,-1,-1,0,0,1965,2017,53,TRUE
02GA031,BLUE SPRINGS CREEK NEAR EDEN MILLS,ON,5,A,D,43.57614136,-80.10900116,41.5,FALSE,TRUE,647,10,-1,-1,0,0,1965,2018,54,TRUE
02GA032,O.A.C. FARM GAUGE NO. 5 AT GUELPH,ON,5,D,D,43.53139114,-80.30500031,2.50999999,FALSE,FALSE,,10,-1,0,-1,-1,1966,1984,19,FALSE
02GA033,LUTTERAL CREEK NEAR OUSTIC,ON,5,D,,43.66278076,-80.25527954,64.80000305,FALSE,FALSE,,10,-1,0,0,0,1953,1991,38,TRUE
02GA034,GRAND RIVER AT WEST MONTROSE,ON,5,A,,43.5850296,-80.4814682,1170,FALSE,TRUE,647,10,-1,-1,0,0,1967,2018,49,TRUE
02GA035,EAST CANAGAGIGUE CREEK NEAR FLORADALE,ON,5,D,D,43.6511116,-80.57221985,27.70000076,FALSE,FALSE,,10,-1,0,-1,-1,1970,1984,15,FALSE
02GA036,CANAGAGIGUE CREEK NEAR FLORADALE,ON,5,D,D,43.66999817,-80.59667206,17.89999962,FALSE,FALSE,,10,-1,0,-1,-1,1970,1984,15,FALSE
02GA037,SCHNEIDER CREEK AT KITCHENER,ON,5,D,,43.43944168,-80.47611237,25.10000038,FALSE,FALSE,647,10,-1,0,0,0,1971,1992,22,FALSE
02GA038,NITH RIVER ABOVE NITHBURG,ON,5,A,,43.48389053,-80.83499908,326,FALSE,TRUE,647,10,-1,-1,0,0,1972,2018,47,FALSE
02GA039,CONESTOGO RIVER ABOVE DRAYTON,ON,5,A,D,43.78353119,-80.63777924,275,FALSE,TRUE,647,10,-1,-1,0,0,1973,2018,43,TRUE
02GA040,SPEED RIVER NEAR ARMSTRONG MILLS,ON,5,A,D,43.63861084,-80.26999664,167,FALSE,TRUE,647,10,-1,-1,0,0,1973,2018,44,TRUE
02GA041,GRAND RIVER NEAR DUNDALK,ON,5,A,,44.14002991,-80.36270142,66.5,FALSE,TRUE,647,10,-1,-1,0,0,1984,2018,30,FALSE
02GA042,MOOREFIELD CREEK NEAR ROTHSAY,ON,5,A,,43.82300186,-80.71785736,60.40000153,FALSE,TRUE,647,10,-1,-1,0,0,1989,2018,30,FALSE
02GA043,HUNSBURGER CREEK NEAR WILMOT CENTRE,ON,5,A,,43.36447144,-80.63260651,14.89999962,FALSE,TRUE,647,10,-1,-1,0,0,1993,2018,26,FALSE
02GA044,SILVER SPRING CREEK NEAR WILMOT CENTRE,ON,5,A,,43.38367081,-80.63616943,2.190000057,FALSE,FALSE,647,10,-1,-1,0,0,1998,2018,21,FALSE
02GA045,HUNSBURGER CREEK NEAR HAYSVILLE,ON,5,A,,43.3652916,-80.63217926,7.340000153,FALSE,FALSE,647,10,-1,-1,0,0,1998,2018,21,FALSE
02GA046,HUNSBURGER CREEK NEAR SCHINDELSTEDDLE,ON,5,A,,43.38375092,-80.6254425,3.460000038,FALSE,FALSE,647,10,-1,-1,0,0,1998,2018,21,FALSE
02GA047,SPEED RIVER AT CAMBRIDGE,ON,5,A,,43.42185974,-80.33274841,762,FALSE,TRUE,647,10,-1,-1,0,0,2002,2018,17,FALSE
02GA048,GRAND RIVER NEAR DOON,ON,5,A,,43.41281128,-80.41703033,2490,FALSE,TRUE,647,10,-1,-1,0,0,2006,2018,13,FALSE
02GA049,SMITH CREEK NEAR NEWTON,ON,5,A,,43.5963707,-80.89427948,71.59999847,FALSE,TRUE,647,10,-1,-1,0,0,2015,2017,3,FALSE
02GA050,LARCHES CREEK NEAR ELMIRA,ON,5,A,,43.61619186,-80.58342743,22.5,FALSE,TRUE,647,10,-1,-1,0,0,2018,2018,1,FALSE
02GB001,GRAND RIVER AT BRANTFORD,ON,5,A,D,43.13272095,-80.2673111,5200,FALSE,TRUE,647,10,-1,-1,-1,-1,1913,2018,83,TRUE
02GB002,GRAND RIVER AT YORK,ON,5,D,,43.02222061,-79.89221954,5910,FALSE,FALSE,477,,-1,0,0,0,1913,1923,11,TRUE
02GB003,WHITEMANS CREEK NEAR BURFORD,ON,5,D,,43.14860916,-80.3555603,399,FALSE,FALSE,477,,-1,0,0,0,1913,1916,4,TRUE
02GB004,FAIRCHILD CREEK NEAR ONONDAGA,ON,5,D,,43.11000061,-80.13471985,298,FALSE,FALSE,477,,-1,0,0,0,1913,1916,4,FALSE
02GB005,BOSTON CREEK NEAR YORK,ON,5,D,,43.02082825,-79.9152832,,FALSE,FALSE,477,,-1,0,0,0,1913,1916,4,FALSE
02GB006,HORNER CREEK NEAR PRINCETON,ON,5,A,,43.17393875,-80.55264282,150,FALSE,TRUE,647,10,-1,-1,0,0,1953,2018,57,TRUE
02GB007,FAIRCHILD CREEK NEAR BRANTFORD,ON,5,A,D,43.14738846,-80.15460968,389,FALSE,TRUE,647,10,-1,-1,0,0,1964,2018,52,FALSE
02GB008,WHITEMANS CREEK NEAR MOUNT VERNON,ON,5,A,,43.12625122,-80.3837204,386,FALSE,TRUE,647,10,-1,-1,0,0,1961,2018,58,TRUE
02GB009,KENNY CREEK NEAR BURFORD,ON,5,D,,43.09917068,-80.48860931,91.90000153,FALSE,FALSE,,10,-1,0,0,0,1961,1991,31,FALSE
02GB010,MCKENZIE CREEK NEAR CALEDONIA,ON,5,A,D,43.03393936,-79.94980621,173,FALSE,TRUE,647,10,-1,-1,0,0,1961,2018,58,TRUE
02GB011,MOUNT PLEASANT CREEK NEAR BURTCH,ON,5,D,,43.06777954,-80.2611084,29,FALSE,FALSE,,10,-1,0,0,0,1964,1977,14,FALSE
02GC001,BIG CREEK NEAR PORT ROWAN,ON,5,D,,42.59999847,-80.51667023,699,FALSE,FALSE,,,-1,0,0,0,1945,1948,4,FALSE
02GC002,KETTLE CREEK AT ST. THOMAS,ON,5,A,D,42.77769089,-81.21399689,331,FALSE,TRUE,647,10,-1,-1,0,0,1945,2018,66,FALSE
02GC004,BIG OTTER CREEK NEAR VIENNA,ON,5,D,D,42.68500137,-80.79611206,697,FALSE,FALSE,,10,-1,0,-1,-1,1948,1975,28,TRUE
02GC005,NORTH CREEK AT DELHI,ON,5,D,,42.85277939,-80.50971985,54.40000153,FALSE,FALSE,,,-1,0,0,0,1954,1966,13,TRUE
02GC006,BIG CREEK NEAR DELHI,ON,5,A,,42.83771896,-80.5098877,370,FALSE,FALSE,647,10,-1,-1,0,0,1955,2018,64,TRUE
02GC007,BIG CREEK NEAR WALSINGHAM,ON,5,A,D,42.68561172,-80.53846741,567,FALSE,TRUE,647,10,-1,-1,-1,-1,1955,2018,64,TRUE
02GC008,LYNN RIVER AT SIMCOE,ON,5,A,D,42.82332993,-80.28943634,144,FALSE,TRUE,647,10,-1,-1,0,0,1957,2018,62,TRUE
02GC009,VENISON CREEK NEAR BIG CREEK,ON,5,D,,42.65417099,-80.54860687,81.40000153,FALSE,FALSE,,,-1,0,0,0,1963,1966,4,FALSE
02GC010,BIG OTTER CREEK AT TILLSONBURG,ON,5,A,,42.85731125,-80.72357941,354,FALSE,TRUE,647,10,-1,-1,0,0,1960,2018,56,FALSE
02GC011,BIG CREEK NEAR KELVIN,ON,5,A,,42.98680878,-80.44468689,154,FALSE,TRUE,647,10,-1,-1,0,0,1963,2018,29,FALSE
02GC012,PATTERSON CREEK NEAR SIMCOE,ON,5,D,,42.85361099,-80.32805634,51.29999924,FALSE,FALSE,,10,-1,0,0,0,1963,1991,29,TRUE
02GC013,DEDRICK CREEK NEAR PORT ROWAN,ON,5,D,,42.62805939,-80.47222137,75.90000153,FALSE,FALSE,,10,-1,0,0,0,1963,1984,22,TRUE
02GC014,YOUNG CREEK NEAR VITTORIA,ON,5,A,,42.76575089,-80.29457855,65.80000305,FALSE,TRUE,647,10,-1,-1,0,0,1963,2018,23,TRUE
